,ville,latitude,longitude,prix_valeur,prix_nom
0,Saint-Genest-Malifaux,45.342869278199004,4.4207864105866,1.89,Gazole
1,Le Blanc-Mesnil,48.92779230000001,2.4739954,1.009,GPLc
2,Revel-Tourdan,45.373,5.027,1.1,E85
3,Bastia,42.703581401618,9.4421935452675,1.98,SP95
4,CHANVERRIE,46.951,-0.981,1.933,E10
5,Albaret-Sainte-Marie,44.872,3.249,2.069,Gazole
6,FAUVILLE-EN-CAUX,49.652,0.6,1.049,E85
7,ARC-LèS-GRAY,47.4541,5.58994,1.781,Gazole
8,Cergy,49.05,2.045,1.977,SP98
9,Boissy saint léger,48.748,2.51,1.199,E85
10,FUVEAU,43.466,5.606,0.837,GPLc
11,Landivisiau,48.51488768027399,-4.0537514354554,1.809,Gazole
12,Gif-sur-Yvette,48.703,2.128,2.029,E10
13,Rosières,48.266508041454,4.0611727612853,1.819,E10
14,SOYAUX,45.639,0.219,1.842,E10
15,AUBAGNE,43.292527999804996,5.5932834572195995,1.835,E10
16,Chail,46.205,-0.097,1.92,E10
17,DREUX,48.743,1.39,1.858,E10
18,OUST,42.883,1.215,1.129,E85
19,Bourges,47.041867728406004,2.348930007346,1.798,Gazole
20,MULHOUSE,47.73842999309301,7.2941953372956,1.821,E10
21,BOURGES,47.093,2.428,1.838,E10
22,VERGT,45.022,0.71,1.779,Gazole
23,Eragny sur Oise,49.026324790000004,2.10290854,1.999,E10
24,SAINT-FLOUR,45.038,3.065,1.899,SP95
25,SAINT-FLOUR,45.038,3.065,1.119,E85
26,Lesperon,43.93687501,-1.0925597999999999,2.1,Gazole
27,VANDOEUVRE-LèS-NANCY,48.654,6.177,1.975,SP98
28,SAINT-DOULCHARD,47.112,2.378,1.915,SP98
29,CHARNAY-LèS-MâCON,46.30944,4.81183,1.889,SP95
30,Saint-Ambreuil,46.691945189175,4.8451681799291,2.106,SP98
31,SAINT-MICHEL-DE-MAURIENNE,45.22,6.459,1.962,Gazole
32,Villaines-la-Gonais,48.124964192082,0.62210350597264,2.224,SP98
33,SAINT-DIONIZY,43.80672,4.23172,1.846,SP98
34,Chalais,45.273,0.042,1.899,SP98
35,Pougues-les-Eaux,47.07736,3.09879,1.989,SP95
36,MOUGINS,43.584,7.025,2.004,E10
37,Florac,44.328,3.592,1.957,SP95
38,La Chapelle-Saint-Ursin,47.063,2.324,1.959,SP95
39,RUFFIEUX,45.846422494013005,5.837168340167101,1.859,E10
40,BONNETABLE,48.178,0.437,1.98,Gazole
41,Courchevel,45.41515,6.63731,2.02,SP95
42,Chaufour-lès-Bonnières,49.02015,1.48938,1.783,Gazole
43,Ergué-Gabéric,47.999,-4.053,1.879,SP95
44,Guignicourt,49.435036675202,3.9668949241097,1.958,SP98
45,Grenoble,45.17108,5.72398,2.079,SP98
46,VERQUIN,50.502,2.652,1.909,SP98
47,CHORGES,44.552,6.256,1.92,SP98
48,Séranon,43.764,6.656,1.96,SP98
49,Allevard,45.386853166258994,6.068597594965399,1.945,SP98
50,Saint-Julien-les-Villas,48.268,4.088,1.845,Gazole
51,Toulouse,43.626,1.459,1.795,Gazole
52,Aulnay,46.029,-0.351,1.862,SP98
53,Panazol,45.82753,1.2918,1.887,SP98
54,Longvic,47.291,5.057,1.899,Gazole
55,Viviez,44.56,2.224,1.819,E85
56,VILLENEUVE-LE-ROI,48.728739311157995,2.4318446308188,2.079,SP98
57,Bollezeele,50.867,2.341,,
58,LA CIOTAT,43.188,5.602,1.796,Gazole
59,Savy-Berlette,50.348,2.569,1.899,Gazole
60,SAINT-JEAN-DE-VéDAS,43.568,3.85,1.805,Gazole
61,CESSON,48.586955815752,2.5964565667331,1.879,E10
62,INGWILLER,48.868,7.47,1.849,E10
63,GENNEVILLIERS,48.92082,2.30617,1.891,Gazole
64,BIOT,43.62474,7.10244,1.929,Gazole
65,Samazan,44.431,0.129,1.883,Gazole
66,Samazan,44.431,0.129,2.058,SP98
67,Maulette,48.792,1.633,2.107,SP98
68,CAEN,49.172764816770005,-0.389710297385,1.099,E85
69,Fontaine-lès-Vervins,49.843,3.905,1.967,SP98
70,TOURNEFEUILLE,43.578,1.327,1.956,Gazole
71,Doué-la-Fontaine,47.19,-0.291,1.959,SP98
72,Laguiole,44.683,2.851,1.869,Gazole
73,BAULNE,48.507,2.37442,1.967,SP98
74,Ussy sur marne,48.96384,3.05281,2.046,SP98
75,PUISEUX-PONTOISE,49.05575,2.0188,2.023,SP98
76,Orly,48.743,2.408,1.939,SP98
77,Arcins,45.069,-0.723,1.815,Gazole
78,TOUQUES,49.35023,0.09044,1.813,E10
79,Aire-sur-l'Adour,43.707393700000004,-0.2565532,1.849,Gazole
80,SAINT ROMAIN EN GIER,45.570715,4.711329,2.139,SP98
81,BIGUGLIA,42.621,9.437,1.25,GPLc
82,Vézeronce-Curtin,45.6672333159,5.473684973199999,1.811,E10
83,Villiers-en-Plaine,46.42905,-0.50681,2.096,SP98
84,LAVAL,48.079,-0.753,2.032,SP98
85,PONT-L'ABBE-D'ARNOULT,45.83,-0.877,1.874,SP98
86,Samer,50.639,1.759,1.079,E85
87,LES ULIS,48.678,2.199,1.929,SP98
88,Chauray,46.342,-0.377,1.794,E10
89,Chauray,46.342,-0.377,1.872,SP98
90,BEUZEVILLE,49.373,0.66,2.014,Gazole
91,Villaines-la-Juhel,48.340561388988,-0.26950407978172,1.899,SP95
92,Roissy-en-Brie,48.79,2.642,1.881,SP95
93,La Barre-de-Monts,46.89,-2.123,1.819,E10
94,Saint-Avold,49.108,6.719,1.859,Gazole
95,DUN-LE-PALESTEL,46.303,1.669,1.848,E10
96,La Ciotat,43.192444730265,5.6660234672218,2.027,E10
97,SAINT-DIZIER,48.649,4.959,0.96,GPLc
98,Brive-la-Gaillarde,45.156,1.518,1.119,E85
99,LES ABRETS-EN-DAUPHINE,45.537,5.577,1.789,Gazole
100,Laroque-des-Albères,42.5479340515,2.94103392299,1.889,SP95
101,LUCEAU,47.706,0.406,1.818,E10
102,Brest,48.389,-4.528,1.849,SP95
103,LE THILLOT,47.889,6.775,1.802,Gazole
104,DAOULAS,48.359,-4.254,1.749,Gazole
105,Sombernon,47.317,4.708,1.839,E10
106,VOUILLE,46.297,-0.372,2.154,SP98
107,Tonnay-Charente,45.9499806704,-0.926442213693,1.099,E85
108,LIT-ET-MIXE,44.025,-1.259,1.809,Gazole
109,SERVIAN,43.422,3.313,1.122,E85
110,MONTIGNY-LèS-CORMEILLES,48.993,2.198,1.859,E10
111,OUTREAU,50.711,1.601,1.934,SP98
112,Sorigny,47.246553839515,0.69664144470514,1.099,E85
113,Susville,44.924571125711,5.7825489754642,1.819,E10
114,VITTEL,48.198083614299996,5.9403257296000005,1.949,SP95
115,Guérande,47.32944,-2.41115,1.744,Gazole
116,Saint-Arnoult-en-Yvelines,48.57456,1.93878,1.873,E10
117,PANAZOL,45.832,1.304,1.879,SP98
118,Escatalens,43.986,1.194,1.99,SP98
119,LANUéJOLS,44.13128,3.38283,1.85,Gazole
120,BRAM,43.241,2.101,1.939,SP95
121,CHAMPS-SUR-YONNE,47.74,3.599,1.999,SP98
122,Bellegarde-en-Forez,45.647,4.297,1.965,SP95
123,Saint-Pierre-du-Mont,43.882980999999994,-0.51997589,1.069,E85
124,JOSSELIN,47.964,-2.545,1.779,Gazole
125,VIREUX-MOLHAIN,50.081,4.725,1.898,SP98
126,PECQUENCOURT,50.37898,3.2186,1.781,Gazole
127,PECQUENCOURT,50.37898,3.2186,1.099,E85
128,PECQUENCOURT,50.37898,3.2186,0.949,GPLc
129,CARQUEIRANNE,43.09261,6.07816,1.822,Gazole
130,Lavilledieu,44.57059,4.4591,1.949,SP98
131,Oloron-Sainte-Marie,43.181,-0.615,1.851,E10
132,LA CHAPELLE-LA-REINE,48.324,2.577,1.949,SP95
133,ST MAURICE LES BROUSSES,45.70744595865,1.2413970550631,1.857,Gazole
134,ST MAURICE LES BROUSSES,45.70744595865,1.2413970550631,1.948,SP95
135,FAINS-VéEL,48.79,5.137,1.079,E85
136,GONESSE,48.99401,2.42407,1.159,E85
137,Andouillé,48.174,-0.783,1.949,SP98
138,VELLES,46.724,1.604,2.034,Gazole
139,LAMBESC,43.64862,5.25565,1.844,SP98
140,DUNKERQUE,51.046,2.415,1.925,SP98
141,30320 MARGUERITTES,43.869,4.435,2.074,E10
142,Aulnay-sous-Bois,48.953,2.497,2.115,SP98
143,Lure,47.683,6.518,1.81,Gazole
144,SARLAT LA CANEDA,44.9,1.212,1.958,E10
145,Le Mans,47.9974,0.22799,1.775,Gazole
146,SASSENAGE,45.218,5.663,1.787,Gazole
147,OS MARSILLON,43.385654130567,-0.61129551817699,1.839,Gazole
148,LA FARE-LES-OLIVIERS,43.549,5.184,1.854,SP95
149,Aubusson,45.964,2.193,1.864,E10
150,LE HAVRE,49.518,0.158,1.93,SP98
151,ABBEVILLE,50.128,1.834,1.735,Gazole
152,PRAYSSAC,44.502,1.186,1.099,E85
153,ROANNE,46.03273,4.06744,1.819,Gazole
154,ROANNE,46.03273,4.06744,1.889,SP95
155,CEVINS,45.474768729990004,6.528103179596201,2.09,SP98
156,Leers,50.68,3.223,1.779,Gazole
157,MONCE EN BELIN,47.897900434473,0.19225037091674999,1.829,E10
158,GALLARDON,48.532295395999995,1.68398622791,1.929,SP95
159,LIMOGES,45.881,1.292,1.855,E10
160,Beaune-la-Rolande,48.084,2.472,1.999,Gazole
161,ANDUZE,44.065,3.971,1.849,E10
162,MERCEUIL,46.95888,4.83532,1.054,GPLc
163,Gaujac,44.076,4.586,1.872,E10
164,HASTINGUES,43.529435729999996,-1.15155841,1.984,Gazole
165,Hermies,50.11131,3.03771,1.099,E85
166,MIRECOURT,48.29234,6.13127,1.961,SP98
167,GONESSE,48.967,2.465,2.098,SP98
168,Bellac,46.129,1.055,1.878,SP95
169,MUROL,45.576,2.932,1.97,SP95
170,Les Sables d'Olonne,46.486721233465,-1.7460232432343,0.979,GPLc
171,LA DESTROUSSE,43.384,5.602,1.149,E85
172,LEUBRINGHEN,50.859765360000004,1.73284823,1.922,SP98
173,Boofzheim,48.329,7.691,1.849,E10
174,LIMOGES,45.907905756291,1.2925191624324,2.13,SP98
175,Bouc-Bel-Air,43.434,5.396,1.049,GPLc
176,PEYRINS,45.0858155334,5.047767045880001,1.99,SP95
177,NIMES,43.841,4.372,1.149,E85
178,JOINVILLE,48.445,5.15,1.849,E10
179,ARLES,43.691,4.638,1.817,E10
180,LANVALLAY,48.460697292594,-2.0151860910311,2.049,SP98
181,LA RAVOIRE,45.57,5.962,0.969,GPLc
182,BRAY-SUR-SEINE,48.41421,3.24178,1.919,SP98
183,CHATEAUNEUF-SUR-CHER,46.86,2.328,1.879,E10
184,SAVERNE,48.74041,7.37466,1.9,Gazole
185,BEAUCAIRE,43.811,4.635,1.099,E85
186,Cazaubon,43.934188321698,-0.063505417152977,1.94,Gazole
187,NICE,43.68588,7.23677,1.85,E10
188,VILLEMOUSTAUSSOU,43.252,2.361,1.969,SP95
189,Liffol-le-Grand,48.32204,5.57626,1.93,SP95
190,SAINT-GENIS-POUILLY,46.242,6.025,1.989,SP95
191,La Broque,48.47898,7.2134,1.839,Gazole
192,COMMUNAY,45.589,4.826,1.826,Gazole
193,SAUVETERRE-DE-GUYENNE,44.698,-0.089,1.099,E85
194,Le Bois-d'Oingt,45.922,4.58,1.769,Gazole
195,FROUARD,48.758,6.136,1.87,Gazole
196,Vourles,45.65803,4.75131,1.971,SP95
197,DINARD,48.623,-2.058,1.773,Gazole
198,Beaumont-sur-Sarthe,48.229,0.128,1.939,SP98
199,Auxerre,47.815226277037,3.5726398863196,1.83,E10
200,TANCARVILLE,49.48442133,0.44913392999999996,1.099,E85
201,VENDAYS-MONTALIVET,45.35615,-1.06209,1.93,SP98
202,SALLANCHES,45.953,6.629,1.914,SP98
203,Châtenois,48.298678018473,5.849774933507301,2.073,SP98
204,VERETZ,47.355,0.817,1.873,SP98
205,Saint-Jouin-de-Marnes,46.885,-0.05946,,
206,ST ROMAIN LA MOTTE,46.082509709837,4.0250504264051,1.879,SP95
207,SAINT-SULPICE-LE-GUéRéTOIS,46.183,1.846,0.957,GPLc
208,Navenne,47.612,6.158,1.83,Gazole
209,Sauvigny-les-Bois,46.94167,3.25919,1.795,Gazole
210,Sauvigny-les-Bois,46.94167,3.25919,1.925,SP95
211,LE POUZIN,44.75628,4.75673,1.92,Gazole
212,COURSON-LES-CARRIèRES,47.616,3.497,1.919,Gazole
213,ECQUEVILLY,48.971,1.919,2.129,SP98
214,Doubs,46.922,6.343,1.959,SP98
215,Druye,47.307,0.536,2.03,Gazole
216,LIMOGES,45.818457256025,1.2492994846559,1.875,SP95
217,LIMOGES,45.818457256025,1.2492994846559,1.806,E10
218,NANCY,48.691,6.193,2.087,SP98
219,AVOINE,47.2059,0.18463999999997,1.943,SP95
220,Bègles,44.817,-0.548,1.899,E10
221,Paris,48.8828951822,2.38263217986,2.042,E10
222,LE BOURGNEUF-LA-FORêT,48.161,-0.968,1.908,SP95
223,Masny,50.33629,3.20489,1.839,E10
224,Trélissac,45.19,0.736,1.86,Gazole
225,CREIL,49.248,2.477,1.997,E10
226,LAYRAC,44.1293782328,0.65982,1.929,Gazole
227,RINXENT,50.807,1.73,1.929,SP98
228,LANESTER,47.77476,-3.34632,1.777,Gazole
229,La Lande-d'Airou,48.816,-1.29,1.799,Gazole
230,LA ROCHEFOUCAULD,45.742,0.387,1.879,SP98
231,LYON,45.74714,4.85069,1.899,Gazole
232,Mourmelon-le-Grand,49.135,4.366,1.909,SP98
233,AURILLAC,44.908,2.421,1.782,Gazole
234,Épinal,48.18517,6.47047,1.95,SP95
235,EYREIN,45.342565585200006,1.93384921776,2.005,SP95
236,Liancourt,49.32593,2.46409,1.95,SP98
237,Dieuze,48.81985,6.72319,1.934,SP98
238,APT,43.882550478083,5.3811722343890995,1.818,E10
239,VILLERS-COTTERêTS,49.2402448976,3.0978654536500003,1.799,Gazole
240,Saint-Aubin-de-Terregatte,48.58491,-1.32638,2.104,E10
241,LORIENT,47.764,-3.396,1.917,SP95
242,PUYGOUZON,43.89247502999999,2.16522366,1.957,SP98
243,Meudon-la-Forêt,48.7848266,2.2263927,1.029,GPLc
244,VENDEUVRE-SUR-BARSE,48.237,4.467,1.949,SP95
245,MONTPELLIER,43.592,3.867,2.027,SP98
246,Irigny,45.688,4.825,1.924,SP95
247,Saint-Alban,43.708,1.397,1.19,E85
248,MONTMORILLON,46.431,0.884,1.919,SP98
249,LA SEYNE-SUR-MER,43.108,5.877,1.919,E10
250,MONTAYRAL,44.4857857762,0.9786550982550001,1.799,Gazole
251,GANGES,43.93026,3.70595,1.067,E85
252,Sète,43.40612,3.70318,1.199,E85
253,ARBENT - OYONNAX,46.272,5.66,1.955,Gazole
254,RUE,50.271,1.669,1.793,Gazole
255,VERN-SUR-SEICHE,48.064522193086,-1.6266261040048002,1.814,E10
256,LA ROCHE-SUR-YON,46.703,-1.43,1.789,E10
257,CLAIRA,42.777,2.917,1.887,E10
258,COUZEIX,45.865,1.238,1.969,SP98
259,VIDAUBAN,43.42763,6.442,1.809,Gazole
260,LA HAYE MALHERBE,49.222884902553,1.0629207645263001,1.899,Gazole
261,Saint-Paul-lès-Dax,43.732,-1.045,1.796,Gazole
262,Saint-Paul-lès-Dax,43.732,-1.045,1.099,E85
263,Rieutort-de-Randon,44.63336,3.47619,1.93,SP98
264,ILLE-SUR-TêT,42.677,2.634,1.809,Gazole
265,Évreux,49.042,1.129,1.776,Gazole
266,Champs-sur-Yonne,47.789,3.672,2.214,SP98
267,SAINT-JEAN-D'ANGéLY,45.944,-0.505,1.839,E10
268,Seyne-les-Alpes,44.34,6.379,1.919,SP98
269,CHAMPTOCEAUX,47.333,-1.261,2.039,SP98
270,DAMPARIS,47.07224,5.41392,1.819,E10
271,LE HAVRE,49.498,0.184,1.89,Gazole
272,Vaudoy-en-Brie,48.6840914,3.0871627000000004,1.999,E10
273,Fos-sur-Mer,43.46484,4.94014,1.119,E85
274,Montgenèvre,44.934,6.733,1.84,Gazole
275,Moncel-lès-Lunéville,48.578790925599996,6.518311423469999,1.109,E85
276,Moncel-lès-Lunéville,48.578790925599996,6.518311423469999,0.975,GPLc
277,ATHIS-MONS,48.712,2.371,1.809,Gazole
278,Plénée-Jugon,48.368,-2.396,1.789,Gazole
279,COUBRON,48.915,2.589,1.936,SP98
280,Fleurbaix,50.653,2.839,1.809,Gazole
281,MASSERET,45.54068,1.52039,1.054,GPLc
282,CAMBRAI,50.167,3.238,2.069,SP98
283,HAUBOURDIN,50.626,2.967,1.779,Gazole
284,LALOUBERE,43.206,0.072,1.249,GPLc
285,MAGNY-LES-HAMEAUX,48.725,2.083,1.899,SP95
286,SARRALBE,48.987,7.028,1.953,E10
287,Chasse-sur-Rhône,45.574,4.811,1.779,Gazole
288,Talant,47.341,4.997,1.885,SP95
289,GRABELS,43.648,3.831,1.845,SP98
290,Saint-Étienne,45.433,4.415,1.939,SP98
291,Les Ormes,46.94833644999999,0.60763006,2.06,SP95
292,MASSIAC,45.254,3.197,1.935,SP95
293,Joeuf,49.225,6.014,1.879,Gazole
294,Joeuf,49.225,6.014,1.979,SP98
295,ARQUES,50.727,2.3,1.759,Gazole
296,Chazey-Bons,45.778,5.689,1.759,Gazole
297,Saint-Aquilin-de-Pacy,49.013,1.378,1.939,SP98
298,Eysines,44.881,-0.651,1.761,Gazole
299,Rixheim,47.753730580832,7.3969362059896,1.929,SP98
300,LIBOURNE,44.901,-0.218,1.845,E10
301,MARSEILLE,43.3402361168,5.42064429815,1.149,E85
302,Saint-Cannat,43.617560128422,5.3077615094695,1.827,E10
303,Cliron,49.805,4.621,1.849,Gazole
304,Cliron,49.805,4.621,1.949,E10
305,Cliron,49.805,4.621,2.029,SP98
306,ASSON,43.146615074533,-0.25807624582917,1.89,SP95
307,limoges,45.821543588666,1.2117206692370999,2.072,SP98
308,GAMACHES,49.984,1.574,1.917,Gazole
309,Saint-Jean-d'Illac,44.801,-0.779,2.05,SP95
310,PERPIGNAN,42.668,2.884,1.909,SP98
311,BOURGES,47.07082,2.37747,1.979,SP98
312,FREJUS,43.43808989,6.7190878000000005,1.922,E10
313,Saint-Dizier,48.627,4.973,1.85,E10
314,JARD-SUR-MER,46.423,-1.575,1.721,Gazole
315,TATTONE,42.172,9.17,1.975,SP95
316,Monthermé,49.88,4.742,1.909,Gazole
317,L'Arbresle,45.838,4.611,1.179,E85
318,LIMOGES,45.815,1.269,1.875,SP95
319,LA CLUSAZ,45.9061113447,6.42205866586,2.078,SP95
320,Ferrette,47.499545499999996,7.307269,1.852,E10
321,Les Mées,44.032,5.972,1.799,Gazole
322,MARINGUES,45.912,3.334,1.909,SP98
323,SAINT-NAZAIRE,47.259,-2.265,1.766,Gazole
324,TOURGEVILLE,49.35124,0.0573,1.888,Gazole
325,AINAY-LE-CHATEAU,46.705,2.695,1.841,E10
326,Hazebrouck,50.715,2.543,1.869,SP95
327,ROYAN,45.62357,-1.01317,1.745,Gazole
328,Eygurande,45.66357,2.45215,,
329,MARSEILLE,43.343,5.422,1.824,E10
330,Dijon,47.342,5.045,1.841,E10
331,Dijon,47.342,5.045,1.921,SP98
332,Canohès,42.663,2.846,1.819,Gazole
333,Besançon,47.26,6.032,1.849,E10
334,LES PENNES-MIRABEAU,43.417,5.356,1.776,E10
335,LES PENNES-MIRABEAU,43.417,5.356,1.836,SP98
336,AVIGNON,43.921259562009,4.8670176328638,1.907,SP98
337,Valence,44.927,4.915,1.861,E10
338,SAINT-DIZIER,48.643,4.969,1.945,SP98
339,St Eloy les Mines,46.161214900000004,2.8351164,2.049,SP98
340,PORTET SUR GARONNE,43.52465,1.39971,1.769,Gazole
341,PORTET SUR GARONNE,43.52465,1.39971,1.833,E10
342,Saint-Raphaël,43.43285,6.80672,0.985,GPLc
343,Barjac,44.305983685312,4.3426901021774,1.81,Gazole
344,COLOMIERS,43.608,1.336,1.853,E10
345,Saint-Gaudens,43.1107006048,0.737427943292,1.149,E85
346,Estancarbon,43.105,0.815,1.791,Gazole
347,Saint-Étienne,45.46,4.397,1.899,E10
348,Bourg en Bresse,46.2051606,5.2250248,1.916,SP98
349,Saint-Martin-d'Hères,45.168,5.755,1.869,E10
350,PITHIVIERS,48.184,2.251,1.95,SP98
351,PARIS,48.835,2.358,1.987,Gazole
352,DABO,48.676,7.202,1.89,Gazole
353,SOUPPES-SUR-LOING,48.183,2.736,1.958,E10
354,VILLé,48.34,7.316,2.042,SP98
355,AUDIERNE,48.028807028900005,-4.55726292638,1.845,E10
356,CHâTEAU-D'OLONNE,46.503611179563,-1.7293689915836,2.043,SP98
357,La Norville,48.578,2.258,1.099,E85
358,Claye-Souilly,48.953,2.666,1.915,Gazole
359,PORTICCIO,41.8873,8.8077,1.89,Gazole
360,MONTIGNY LE ROI,48.005,5.487,1.879,Gazole
361,Le Thillay,49.007785999999996,2.464909,1.949,Gazole
362,JUSSEY,47.829,5.892,1.88,E10
363,Maîche,47.253,6.801,1.919,E10
364,Domérat,46.36701,2.56526,1.925,SP98
365,FRANQUEVILLE-SAINT-PIERRE,49.398,1.178,1.889,SP95
366,MONTPELLIER,43.595,3.868,1.295,E85
367,MORMANT,48.6084,2.89009,1.846,E10
368,SAINTE-PAZANNE,47.10399,-1.80297,1.819,E10
369,Noiseau,48.77667,2.55134,1.839,E10
370,Vazeilles-Limandre,45.118830599099,3.7296246712445003,2.039,SP98
371,Châlette-sur-Loing,48.012005760094,2.7220245686636,1.119,E85
372,L'ISLE-D'ESPAGNAC,45.665,0.201,1.979,SP98
373,ORTHEZ,43.48971359,-0.7864935099999999,2.062,SP98
374,VENELLES,43.594731681324,5.4827678825562005,2.039,SP98
375,THIVIERS,45.424561452651,0.92805331392518,1.769,Gazole
376,THIVIERS,45.424561452651,0.92805331392518,1.896,SP98
377,Bruay-la-Buissière,50.47512,2.53814,1.829,E10
378,BONSECOURS,49.418,1.133,1.917,SP98
379,MONDONVILLE,43.6728204887,1.28413626363,1.899,SP98
380,Saint-Flour,45.0335463,3.093154,1.869,E10
381,PAUILLAC,45.201,-0.75,1.895,SP98
382,courrières,50.447,2.944,0.965,GPLc
383,courrières,50.447,2.944,1.856,E10
384,courrières,50.447,2.944,1.934,SP98
385,Salon-de-Provence,43.653,5.1,1.809,E10
386,LAMORLAYE,49.156,2.445,1.957,SP98
387,VILLEPINTE,48.957,2.56,1.949,Gazole
388,Messimy-sur-Saône,46.049817093241,4.765510617678601,1.897,Gazole
389,LOISY,48.855856302199996,6.08777352389,1.054,GPLc
390,Wintzenheim,48.071,7.297,1.886,SP98
391,Champigny-sur-Marne,48.823,2.494,1.129,E85
392,Tence,45.108552970837,4.2958388576009,1.779,Gazole
393,QUIMPER,48.00023,-4.08988,1.915,SP98
394,Challans,46.848347249999996,-1.8770686875252,1.929,Gazole
395,Saverdun,43.253,1.565,1.119,E85
396,Steenvoorde,50.826,2.586,1.999,Gazole
397,MIRAMAS,43.6,5.003,1.925,SP98
398,MENETROL,45.878,3.117,1.909,SP95
399,MENETROL,45.878,3.117,1.839,E10
400,CONTRES,47.43007,1.43427,1.918,SP98
401,CLICHY-SOUS-BOIS,48.907,2.532,1.915,SP95
402,CLICHY-SOUS-BOIS,48.907,2.532,1.869,E10
403,THIONVILLE,49.352,6.16,1.924,Gazole
404,LE THILLOT,47.881,6.764,0.937,GPLc
405,DIJON,47.358,5.048,1.89,SP98
406,BRIVE-LA-GAILLARDE,45.167,1.55,1.889,E10
407,Rethel,49.511,4.368,1.815,Gazole
408,ST SATURNIN DE LENNE,44.42315860941999,3.0125916032708,1.899,E10
409,LANGEAC,45.112235456512,3.4913707320236003,1.999,SP98
410,Villeneuve-lès-Avignon,43.958,4.778,1.129,E85
411,Semur-en-Auxois,47.492,4.337,1.999,SP98
412,Bouloc,43.784,1.402,1.929,SP98
413,Casteljaloux,44.314,0.081,1.826,E10
414,Laruscade,45.107,-0.341,1.866,Gazole
415,Andrésy,48.976,2.043,1.943,Gazole
416,Aixe-sur-Vienne,45.795,1.126,1.889,Gazole
417,Saint-Pierre-Église,49.66026,-1.4114,1.956,SP98
418,CARCANS,45.079,-1.037,1.9,SP95
419,VILLARD-DE-LANS,45.088,5.558,1.843,SP95
420,Nant,44.01406,3.30473,1.982,SP95
421,BRETIGNOLLES-SUR-MER,46.62588,-1.85856,1.727,Gazole
422,BRETIGNOLLES-SUR-MER,46.62588,-1.85856,1.889,SP98
423,Canet-en-Roussillon,42.707,3.015,1.119,E85
424,Canet-en-Roussillon,42.707,3.015,1.949,SP98
425,Thoiry,48.865757640000005,1.79757381,1.999,SP98
426,Saint-Sylvain-d'Anjou,47.50044,-0.49059,1.999,Gazole
427,Saint-Sylvain-d'Anjou,47.50044,-0.49059,2.139,E10
428,SAINT BARTHéLéMY D'ANJOU,47.48298,-0.51446,1.949,SP98
429,PAREMPUYRE,44.94765,-0.60351,1.779,Gazole
430,Saint-Just-d'Ardèche,44.305,4.612,1.859,E10
431,Saint-Rogatien,46.1505429,-1.0765411900000001,1.889,SP98
432,THIONVILLE,49.337,6.156,1.983,E10
433,ORGEVAL,48.925090170131995,1.9930666183828,1.837,Gazole
434,FèRE-EN-TARDENOIS,49.201,3.511,1.779,Gazole
435,Cannes,43.571,6.959,1.785,Gazole
436,ORNANS,47.1050859005,6.13111903113,1.899,Gazole
437,LENS,50.435,2.841,1.88,Gazole
438,LENS,50.435,2.841,2.038,SP98
439,BONIFACIO,41.391,9.165,1.969,Gazole
440,Pluméliau,47.962,-2.983,1.905,SP98
441,LIVERS-CAZELLES,44.059,1.966,1.913,Gazole
442,Montpellier,43.587,3.889,1.783,E10
443,BALBIGNY,45.8102,4.19681,1.835,E10
444,Levens,43.856,7.227,1.999,Gazole
445,ORANGE,44.12,4.84,1.949,SP98
446,VOISINS LE BRETONNEUX,48.762342564781996,2.042312091291,1.929,Gazole
447,Clisson,47.095,-1.292,1.904,SP95
448,Nice,43.702,7.294,1.989,Gazole
449,ANVIN,50.447,2.251,1.849,Gazole
450,COUTANCES,49.068082654636,-1.4313242825037,1.949,SP98
451,Saint-Germain,46.563706917392,0.87017519193499,1.88,Gazole
452,PORTICCIO,41.898,8.81,1.935,SP95
453,La Flèche,47.701,-0.056,1.879,E10
454,BELFORT,47.631,6.867,1.159,E85
455,HAM,49.742,3.091,1.95,SP98
456,BAZOCHES LES GALLERANDES,48.161124593692996,2.0518201447943003,1.845,Gazole
457,Saint-Benoît-des-Ondes,48.619,-1.849,1.919,Gazole
458,GRASSE,43.635,6.952,1.779,Gazole
459,Bourgoin-Jallieu,45.586,5.263,1.999,SP98
460,Loudun,47.0,0.069,1.841,E10
461,AMANCY,46.07,6.32,1.96,SP98
462,LURE,47.67185,6.51182,1.919,SP98
463,Malakoff,48.82,2.305,1.989,Gazole
464,BOURG ACHARD,49.361,0.817,1.099,E85
465,PLOUHARNEL,47.59785,-3.11074,1.98,E10
466,FREJUS,43.460305999999996,6.7425978,1.859,Gazole
467,Carrières-sous-Poissy,48.956,2.042,1.94,SP98
468,HAZEBROUCK,50.73122,2.54372,2.038,SP98
469,Lisieux,49.144,0.222,2.02,E10
470,Bain-de-Bretagne,47.846,-1.687,1.119,E85
471,Beauvais,49.442,2.093,1.884,SP98
472,Tauves,45.56,2.62,2.056,SP95
473,Bois-d'Arcy,48.80133,2.02637,1.978,SP98
474,Deux-Chaises,46.38,3.04,2.059,SP98
475,WALDIGHOFEN,47.556,7.307,1.799,Gazole
476,Aulnoy-lez-Valenciennes,50.33457,3.51712,1.769,Gazole
477,Marmande,44.50818,0.19074,1.883,Gazole
478,THORIGNY-SUR-MARNE,48.896,2.716,1.919,SP95
479,PAU,43.307,-0.376,1.228,E85
480,Mortain,48.655,-0.937,1.954,SP98
481,Tain-l'Hermitage,45.068,4.848,1.829,E10
482,Marseille,43.295,5.4,1.109,E85
483,MONTROUGE,48.813,2.357,2.039,E10
484,Theillay,47.314,2.042,2.024,Gazole
485,CHAMPAGNOLE,46.749,5.907,1.79,Gazole
486,BASTIA LUPINU,42.679275416212,9.4430956412724,1.98,SP95
487,L'Isle-en-Dodon,43.386,0.835,2.044,SP98
488,CRETEIL,48.78292,2.4467,1.169,E85
489,BEYNAT,45.125542413999995,1.7225066547599999,1.945,SP95
490,Orschwiller,48.232,7.405,1.054,GPLc
491,SAINT-LAURENT-DE-LA-SALANQUE,42.774,2.998,1.99,SP95
492,BLAINVILLE-SUR-MER,49.065,-1.595,1.829,Gazole
493,Pont-l'Évêque,49.288,0.189,1.099,E85
494,ÉCHIRé,46.38889661,-0.42539277000000003,1.05,E85
495,ÉCHIRé,46.38889661,-0.42539277000000003,1.779,E10
496,Les Pennes-Mirabeau,43.399,5.341,1.969,SP98
497,NERONDE,45.85087905,4.2247256455910005,1.054,GPLc
498,Le Mesnil-le-Roi,48.943,2.129,1.982,SP98
499,Neuilly-en-Thelle,49.229,2.282,1.895,E10
500,Vandoeuvre-lès-nancy,48.655,6.186,1.129,E85
501,BRIOUDE,45.311,3.375,1.939,SP98
502,Blacé,46.044,4.673,1.318,E85
503,DUPPIGHEIM,48.52668,7.59899,2.05,SP98
504,AVESNES-LE-COMTE,50.27889,2.53606,1.909,SP95
505,WASSELONNE,48.637,7.461,1.917,SP98
506,Asnelles,49.339,-0.58,1.939,SP98
507,AIX-NOULETTE,50.44315,2.69562,1.972,SP95
508,Bourg-lès-Valence,44.959,4.883,1.924,SP98
509,POUZAC,43.08,0.14,1.839,Gazole
510,LONGUé-JUMELLES,47.371,-0.098,1.099,E85
511,SAINTE-SIGOLèNE,45.24806,4.24106,1.919,SP98
512,SEURRE,46.993,5.148,1.779,Gazole
513,Messas,47.820800416871,1.6413549164550998,1.948,Gazole
514,Chaudes-Aigues,44.857,3.008,1.859,Gazole
515,THONON-LES-BAINS,46.35892,6.45909,1.805,Gazole
516,JUVIGNAC,43.614,3.809,0.959,GPLc
517,EMBRUN,44.56,6.487,1.919,SP95
518,Saint-Germain-sur-Morin,48.884,2.841,1.962,SP98
519,Bourg-en-Bresse,46.188,5.245,1.05,GPLc
520,LE TEMPLE-SUR-LOT,44.381,0.532,2.027,SP95
521,Créon,44.772088427,-0.335077945189,1.899,SP98
522,PAULHAGUET,45.2087954502,3.50687903911,1.936,SP98
523,BISCARROSSE,44.3831,-1.14726,1.829,Gazole
524,ANGOULINS,46.111,-1.103,1.726,Gazole
525,Dordives,48.144,2.772,1.799,Gazole
526,SAINT-DONAT-SUR-L'HERBASSE,45.119,4.972,1.1,E85
527,Narbonne,43.18083,3.0141,1.119,E85
528,Varces-Allières-et-Risset,45.098,5.683,1.949,SP98
529,BRIGNOLES,43.409,6.045,1.818,Gazole
530,RAILLENCOURT-SAINTE-OLLE,50.175,3.2,1.828,Gazole
531,RUE,50.276,1.658,,
532,AYTRE,46.131,-1.099,1.873,Gazole
533,AUXERRE,47.804,3.589,0.937,GPLc
534,ARGENTEUIL,48.94889,2.20959,1.969,SP98
535,MOREUIL,49.788,2.469,1.979,SP98
536,LIMOGES,45.838,1.219,1.769,Gazole
537,BEAUVAIS,49.456,2.1,1.949,Gazole
538,Saint-Usage,47.112,5.256,1.799,Gazole
539,BESSONCOURT,47.641,6.916,0.919,GPLc
540,Le Bouscat,44.868,-0.607,2.058,SP98
541,SAINT-GERMAIN-EN-LAYE,48.903,2.084,1.941,Gazole
542,Rennes,48.126,-1.685,1.942,SP98
543,AILLY-SUR-NOYE,49.750488813391,2.359071858947,1.099,E85
544,LES ABRETS EN DAUPHINE,45.533,5.587,1.839,Gazole
545,CHâTEAURENARD,43.888,4.849,1.789,Gazole
546,Boulogne-sur-Mer,50.74,1.613,1.869,E10
547,Carcassonne,43.216,2.355,1.98,SP95
548,VAYRAC,44.953,1.703,1.929,Gazole
549,RONCQ,50.754,3.135,1.926,SP98
550,HYERES,43.0846876404,6.14856278346,1.169,E85
551,HYERES,43.0846876404,6.14856278346,2.012,SP98
552,CROZON,48.2506817631,-4.47202790147,1.771,Gazole
553,CROZON,48.2506817631,-4.47202790147,1.099,E85
554,ALISSAS,44.715,4.615,1.099,E85
555,LORIENT,47.73551,-3.37039,1.827,E10
556,LANOUAILLE,45.386213921837,1.13595242501,1.859,E10
557,Le Neubourg,49.143,0.903,1.119,E85
558,Le Beausset,43.196,5.804,2.032,SP98
559,NORT-SUR-ERDRE,47.439,-1.48,1.809,E10
560,PEROLS,43.570766061867,3.941656704366,1.898,SP98
561,LA SéGUINIèRE,47.06,-0.941,1.913,E10
562,Vouvray,47.412,0.803,1.959,SP98
563,MORTEAU,47.056,6.609,1.999,SP98
564,Buironfosse,49.960603600000006,3.8238007,1.929,E10
565,EYBENS,45.151835,5.739984000000001,1.024,GPLc
566,Dieuze,48.811,6.714,1.894,E10
567,Dommartin-lès-Cuiseaux,46.496128600000006,5.3116591,2.139,Gazole
568,Oignies,50.47,2.996,1.82,Gazole
569,Vierzon,47.205,2.072,1.849,E10
570,TREGUIER,48.778,-3.232,1.07,E85
571,LACAPELLE-MARIVAL,44.728,1.921,2.047,SP98
572,Mont-de-Marsan,43.884,-0.498,1.859,E10
573,Guéret,46.168,1.888,1.878,E10
574,Pierrefitte-sur-Seine,48.973468486200005,2.3658464324,1.982,SP98
575,RéALMONT,43.772,2.183,2.038,SP98
576,NICE,43.675,7.227,1.85,E10
577,Roquebrune-sur-Argens,43.461,6.639,1.959,SP98
578,CUSSET,46.136,3.455,1.798,Gazole
579,Châtillon-sur-Seine,47.853,4.571,2.046,SP98
580,LORMONT,44.879,-0.518,1.912,Gazole
581,MOULINS-LèS-METZ,49.0831628715,6.10967138774,1.889,E10
582,Argelès-Gazost,43.016,-0.097,1.179,E85
583,ETAMPES,48.434,2.172,1.109,E85
584,Sainte-Savine,48.293,4.043,1.963,SP98
585,LES PONTS-DE-Cé,47.437,-0.514,1.869,SP95
586,BALMA,43.60917,1.49007,1.865,E10
587,Saint-Florentin,48.0,3.718,1.959,SP98
588,Cotignac,43.528,6.15,1.899,Gazole
589,SAINT PARRES AUX TERTRES,48.297951133716005,4.1336364178578995,1.939,SP98
590,VIERZON,47.227125767400004,2.05324708161,1.798,Gazole
591,COMMENTRY,46.294,2.741,1.798,Gazole
592,COMMENTRY,46.294,2.741,1.895,SP95
593,CASTETS,43.869941219434004,-1.1338228489867999,1.83,E10
594,Chissay-en-Touraine,47.342,1.163,1.827,E10
595,Brie-Comte-Robert,48.701,2.601,1.179,E85
596,BOLLèNE,44.322,4.745,1.792,E10
597,Aoste,45.592,5.609,1.783,Gazole
598,Aoste,45.592,5.609,1.849,E10
599,HYèRES,43.107309124100006,6.12855048044,1.758,Gazole
600,VAUCELLES,49.2849,-0.7357,1.773,Gazole
601,POMPEY,48.768,6.124,1.889,E10
602,Guémené-sur-Scorff,48.064,-3.208,1.889,SP98
603,La Haye-du-Puits,49.297,-1.544,1.884,Gazole
604,La Réole,44.58387,-0.06804,1.839,E10
605,LANçON-PROVENCE,43.594,5.128,1.898,E10
606,vico,42.167,8.799,1.89,Gazole
607,SAINT-THIBAULT-DES-VIGNES,48.869,2.675,1.119,E85
608,Malafretaz,46.323,5.137,1.926,E10
609,FENIOUX,45.894721569803,-0.60338845634462,2.244,SP98
610,GUIGNEN,47.917,-1.857,1.768,Gazole
611,GUIGNEN,47.917,-1.857,1.842,E10
612,CARCASSONNE,43.19723,2.3233,1.948,SP98
613,NARBONNE,43.182,2.981,1.949,SP95
614,BEURE,47.207,5.999,1.889,E10
615,Le Grand-Quevilly,49.40138,1.06468,1.887,Gazole
616,Saint-Jean-de-Braye,47.91458,1.96581,1.099,E85
617,EYRANS,45.19,-0.619,2.062,SP98
618,MACON,46.3,4.829,1.778,Gazole
619,VALENCIENNES,50.35369,3.52025,1.779,Gazole
620,TOURS,47.365,0.711,1.947,SP98
621,Salon-de-Provence,43.631,5.101,1.865,Gazole
622,PEYREHORADE,43.5503,-1.12342,1.942,SP95
623,GEVREY-CHAMBERTIN,47.222,5.009,2.034,Gazole
624,Compiègne,49.394919671941,2.7929386448763003,1.119,E85
625,THIMERT-GâTELLES,48.577,1.239,1.809,Gazole
626,DOULLENS,50.16,2.342,1.828,E10
627,HARLY,49.84272807,3.32345007,1.784,Gazole
628,MAULEON,46.92208,-0.7386,1.059,E85
629,LA FèRE,49.66023,3.37185,1.979,SP95
630,PARIS,48.893,2.302,2.002,SP98
631,BOUC-BEL-AIR,43.441633614238,5.395413490732,1.969,Gazole
632,BOURRAN,44.33,0.378,2.059,E10
633,ARçONNAY,48.40802,0.08612,0.939,GPLc
634,Varades,47.38927,-1.0203,1.909,SP98
635,HAMBACH,49.08347,7.04028,1.815,E10
636,Carnoux-en-Provence,43.25094,5.54822,1.796,Gazole
637,Le Muy,43.470494052136,6.5786569002191,1.836,Gazole
638,PERPIGNAN,42.677771792859,2.8906260773837995,0.919,GPLc
639,RAMBERVILLERS,48.346,6.639,1.907,Gazole
640,TOURNAY,43.185,0.239,1.94,Gazole
641,GRAVELINES,50.996,2.149,1.883,Gazole
642,Gimont,43.628,0.878,1.94,Gazole
643,LAVELANET,42.928,1.858,1.931,SP95
644,Saulces-Monclin,49.594069537325,4.5029188207464,2.039,E10
645,LABASTIDE-MURAT,44.659,1.569,1.06,GPLc
646,Saint-Priest,45.686,4.945,1.823,E10
647,SOISSONS,49.368,3.329,1.149,E85
648,Maintenon,48.58,1.57,1.799,Gazole
649,Fonsorbes,43.54109,1.23845,2.033,SP98
650,Péronnas,46.191,5.211,1.899,E10
651,VERTON,50.401548,1.65032437,1.903,E10
652,LACQ AUDEJOS NORD - ARTIX,43.418747,-0.584483,2.069,E10
653,Coutances,49.05,-1.44,1.917,SP95
654,MIMET,43.42967,5.47296,1.854,E10
655,VOLX,43.842885752117,5.851421022464799,2.194,SP98
656,SOUBISE,45.921,-1.003,1.819,E10
657,MONTESCOT,42.607883503923,2.9237131744831997,1.939,SP98
658,Saint-Germain-sur-Sarthe,48.299,0.097,1.887,Gazole
659,AUBIèRE,45.754,3.13,1.939,SP98
660,ARCIS-SUR-AUBE,48.536,4.145,1.929,E10
661,Antibes,43.572753662013,7.101651755897599,1.929,E10
662,Morancez,48.406,1.491,1.838,E10
663,PLAN-D'ORGON,43.801,5.005,1.765,Gazole
664,PLAN-D'ORGON,43.801,5.005,1.876,E10
665,SEPT-SORTS,48.937,3.104,1.887,SP98
666,Saint-Mitre-les-Remparts,43.465,5.003,1.788,Gazole
667,EMMERIN,50.597,2.999,1.925,SP98
668,Fellering,47.888,7.218,1.932,E10
669,PASSY,45.91878,6.70405,1.845,E10
670,CARCASSONNE,43.206,2.311,1.049,GPLc
671,REMOULINS,43.939,4.574,1.869,E10
672,MONTDIDIER,49.647,2.588,1.907,SP98
673,Saint-Trivier-de-Courtes,46.459,5.075,1.888,SP95
674,ANGOULEME,45.64268,0.13526,1.923,SP98
675,Messimy,45.697,4.685,1.169,E85
676,Antibes,43.587,7.119,1.849,E10
677,CEIGNES,46.118095624940004,5.491106279529101,2.069,E10
678,Bourgneuf-en-Retz,47.04097,-1.95607,1.878,Gazole
679,ARLES,43.65159,4.67002,2.089,SP98
680,BELMESNIL,49.771,1.049,1.799,Gazole
681,SAINT-SULPICE-LA-POINTE,43.77,1.673,1.199,E85
682,BRUZ,48.029,-1.728,0.939,SP98
683,Bouc-Bel-Air,43.435,5.397,1.919,SP98
684,Saint-Mitre-les-Remparts,43.462,5.006,1.909,SP98
685,CAEN,49.18856,-0.35025,2.048,SP98
686,TALENCE,44.81,-0.574,1.769,Gazole
687,Saint-Martin-la-Plaine,45.541,4.611,1.839,Gazole
688,Bruges,44.888,-0.581,1.999,E10
689,MARSEILLE,43.268,5.415,1.099,E85
690,Saint-Malo,48.62853,-2.00496,1.793,Gazole
691,Saint André les vergers,48.28,4.041,1.889,E10
692,Saint-Nazaire-les-Eymes,45.247,5.868,2.169,SP98
693,Lons-le-Saunier,46.68,5.572,1.784,Gazole
694,Dole,47.086,5.496,1.928,SP98
695,SAINT-GALMIER,45.5858581618,4.31195404804,1.82,SP95
696,Lamotte-Beuvron,47.599444952,2.02315857653,2.053,SP98
697,Saint-Laurent-sur-Manoire,45.138,0.807,2.042,SP98
698,Marsannay-la-Côte,47.28,5.019,0.959,GPLc
699,Saint-Joachim,47.38537,-2.20281,,
700,SAINT-VALLIER,46.643,4.372,1.999,SP95
701,ÉGLY,48.582,2.231,1.799,Gazole
702,Gramat,44.78723,1.74089,1.92,Gazole
703,Reims,49.256,4.047,1.961,SP98
704,JOEUF,49.22573,6.01531,,
705,LUNEVILLE,48.5844,6.48198,,
706,JARNY,49.15977,5.88111,1.999,SP98
707,Malemort-sur-Corrèze,45.168,1.561,1.907,SP98
708,ROUBAIX,50.698,3.166,1.878,Gazole
709,Marcq-en-Baroeul,50.664,3.089,1.792,Gazole
710,Compiègne,49.401,2.807,1.859,E10
711,Avignon,43.94,4.798,1.762,Gazole
712,AIX-EN-PROVENCE,43.506,5.399,1.877,SP95
713,AIX-EN-PROVENCE,43.506,5.399,1.783,E10
714,MARQUION,50.225,3.069,2.045,SP98
715,LA FARE-EN-CHAMPSAUR,44.672983511300004,6.0736685408,1.879,SP95
716,LA FARE-EN-CHAMPSAUR,44.672983511300004,6.0736685408,1.849,E10
717,BILLERE,43.305882255669005,-0.40287475687442,2.072,SP98
718,STRASBOURG,48.524349926212004,7.7838726035692,1.129,E85
719,Saint-Martial-de-Valette,45.52,0.655,1.888,Gazole
720,Tassin-la-Demi-Lune,45.764,4.759,1.781,Gazole
721,CAMPAGNE-LèS-HESDIN,50.401,1.88,1.954,SP98
722,CHAMPAGNE-AU-MONT-D'OR,45.8004247,4.7867323,1.919,SP98
723,Villefranche-sur-Saône,45.998,4.716,1.949,SP98
724,Pontcharra-sur-Turdine,45.87792,4.5113,1.799,Gazole
725,Vernou-sur-Brenne,47.414,0.85,1.8,Gazole
726,BRUNOY,48.698,2.507,1.89,Gazole
727,YVETOT,49.62113,0.76692,1.989,SP98
728,LE PéAGE-DE-ROUSSILLON,45.377,4.796,1.119,E85
729,NOYEN-SUR-SARTHE,47.8572805645,-0.105548709568,,
730,Aix-les-Bains,45.697,5.908,1.849,E10
731,MEGEVE,45.864774000000004,6.625507,1.169,E85
732,Belin-Béliet,44.50865,-0.78425,1.895,SP98
733,Cagnes-sur-Mer,43.6704313,7.1246469999999995,1.189,E85
734,Paris,48.82335277,2.31601065,1.189,E85
735,Saint-Jean-du-Cardonnay,49.495,0.998,2.034,SP98
736,Grand-Couronne,49.354,1.03,1.119,E85
737,Meaux,48.957,2.885,1.957,SP98
738,COUBERT,48.668648391000005,2.6993306670700004,1.92,Gazole
739,COUBERT,48.668648391000005,2.6993306670700004,2.078,SP98
740,CHATEAUNEUF-LES-MARTIGUES,43.394,5.135,0.933,GPLc
741,Le Pecq,48.879081594009,2.0969036115051,1.845,Gazole
742,LE TRANSLAY,49.964115195680996,1.6573810008733998,2.019,Gazole
743,Neuilly-sur-Marne,48.85427,2.52019,1.945,Gazole
744,LA VALETTE-DU-VAR,43.143,6.011,2.004,SP98
745,COGOLIN,43.264,6.577,1.809,E10
746,COGOLIN,43.264,6.577,1.924,SP98
747,LE RUSSEY,47.1548494,6.719996,1.949,SP95
748,Salernes,43.56,6.25,1.843,Gazole
749,Viry-Châtillon,48.65277,2.36915,2.094,SP98
750,BOIS-GUILLAUME,49.47557,1.10624,1.776,Gazole
751,Saint-Étienne,45.424,4.411,2.059,SP98
752,COGOLIN,43.249,6.535,1.147,E85
753,Saint-Junien,45.896,0.915,1.799,E10
754,MACAU,44.9994213,-0.618851,1.847,E10
755,USSON-EN-FOREZ,45.3902488032,3.94694,1.839,Gazole
756,LONGPONT-SUR-ORGE,48.653,2.274,1.793,E10
757,LE POULIGUEN,47.27503,-2.44083,1.876,SP98
758,Mardié,47.907,2.059,2.11,E10
759,GEISPOLSHEIM,48.521,7.695,0.954,GPLc
760,CONCARNEAU,47.89,-3.917,1.796,E10
761,PINS-JUSTARET,43.47891,1.38925,1.869,SP95
762,SAINT-CLOUD,48.845,2.21,2.149,SP98
763,BRUYèRES,48.199,6.727,1.858,E10
764,LEVROUX,46.973,1.612,1.994,SP98
765,CANNES,43.55857,7.00235,1.942,E10
766,Romilly-sur-Seine,48.509,3.732,1.938,E10
767,Ligny-en-Barrois,48.677,5.326,1.81,Gazole
768,Nontron,45.54059,0.66713,1.929,SP95
769,STOSSWIHR,48.049,7.114,2.049,SP98
770,PELLOUAILLES-LES-VIGNES,47.522,-0.442,1.762,Gazole
771,Neuville-de-Poitou,46.678634849341,0.26579980945895,1.879,SP98
772,SAINT-MARTIN-DE-Ré,46.198,-1.355,1.871,SP98
773,Modane,45.20178,6.6719,1.832,E10
774,Laragne-Montéglin,44.312,5.825,1.79,E10
775,Aouste-sur-Sye,44.722791997058,5.0370403620364,1.869,SP95
776,NOIRéTABLE,45.83,3.755,1.869,SP95
777,LE DORAT,46.21632,1.08409,1.879,SP95
778,MERU,49.21043,2.151187,1.954,Gazole
779,PESMES,47.279365068164005,5.56670857627,1.809,Gazole
780,Descartes,46.981,0.69,1.785,Gazole
781,SAINT-NAZAIRE,47.28,-2.228,1.889,SP98
782,Bessines-sur-Gartempe,46.13182,1.37253,1.769,Gazole
783,CAPBRETON,43.65,-1.431,2.058,SP98
784,CéRANS-FOULLETOURTE,47.83,0.077,1.949,SP98
785,LORIENT,47.747,-3.388,1.889,SP98
786,Ambillou,47.451,0.455,1.895,Gazole
787,CLELLES en TRIEVES,44.823,5.621,1.982,E10
788,SAINT-GEORGES-SUR-CHER,47.3298125,1.1500625,2.037,SP98
789,VALENCIENNES,50.379,3.543,1.088,E85
790,Vic-en-Bigorre,43.392,0.055,1.839,Gazole
791,PERPIGNAN,42.689,2.878,1.934,SP95
792,Saint-Étienne,45.437398103719,4.4109830690643,1.809,Gazole
793,Belvès,44.771,1.011,1.835,Gazole
794,Salies-de-Béarn,43.47492,-0.91425000000002,1.869,E10
795,PERTUIS,43.695,5.492,1.855,SP95
796,BINIC,48.61177,-2.83098,1.899,SP98
797,Chagny,46.921,4.748,1.849,Gazole
798,Saint-Quentin,49.8341,3.29966,1.852,E10
799,ANTONY,48.74,2.315,1.922,SP95
800,BOURGOIN JALLIEU,45.58565,5.26867,1.129,E85
801,GENNEVILLIERS,48.921,2.295,2.049,E10
802,RODEZ,44.377,2.593,1.898,Gazole
803,CAZèRES,43.20779,1.09067,1.899,SP98
804,FEURS,45.74069,4.21736,1.787,Gazole
805,PONTAUMUR,45.87,2.673,1.949,SP98
806,BEAUCOUZE,47.466,-0.63,1.099,E85
807,Châtenois,48.299,5.842,1.999,SP98
808,LEMPDES,45.777,3.197,1.119,E85
809,Sainte-Marie-de-Ré,46.158,-1.324,1.859,Gazole
810,Puget-sur-Argens,43.466859091819,6.671643191754801,1.249,E85
811,CHAILLES,47.52356,1.30304,1.869,E10
812,VILLENEUVE DE BERG,44.572,4.512,1.919,SP98
813,BROGNON,47.422140465593,5.1703182291236995,1.969,Gazole
814,Vigneux-de-Bretagne,47.33,-1.781,1.933,E10
815,Bussière-Poitevine,46.232,0.898,1.973,Gazole
816,MORTAGNE-SUR-SèVRE,46.994,-0.949,1.899,SP98
817,AIGUEBLANCHE,45.503,6.50161,1.799,Gazole
818,Challans,46.843,-1.887,1.742,Gazole
819,JURANCON,43.286,-0.383,1.149,E85
820,LA MADELEINE,50.651008579,3.06270154852,1.783,Gazole
821,TOULON,43.128,5.919,2.009,SP98
822,LYON 5EME,45.754,4.777,1.869,Gazole
823,Corbigny,47.25489,3.68314,1.859,Gazole
824,Corbigny,47.25489,3.68314,1.998,SP98
825,châtres sur cher,47.267591521387,1.8833118791535,1.93,Gazole
826,Saint-Nazaire,47.27115,-2.24965,0.985,GPLc
827,Bron,45.733,4.908,1.813,SP95
828,Gilley,47.047390073703,6.4975326782419,1.841,Gazole
829,Gilley,47.047390073703,6.4975326782419,1.948,SP95
830,GUYANCOURT,48.76991,2.06,1.159,E85
831,RENNES,48.127,-1.651,1.837,E10
832,LE CANNET,43.562,6.967,1.775,Gazole
833,LA CROIX SAINT OUEN,49.358,2.777,1.939,SP98
834,VERDUN,49.143,5.409,1.859,Gazole
835,MACON,46.285,4.808,1.179,E85
836,RENNES,48.124793936799996,-1.7014317351500001,1.024,GPLc
837,SAINT-NICOLAS-DU-PéLEM,48.3066976252,-3.16397737542,1.769,Gazole
838,THIERS,45.842,3.515,1.819,Gazole
839,CHâTEAU-RENAULT,47.598,0.914,1.781,Gazole
840,Furiani,42.657,9.441,1.92,Gazole
841,CRETEIL,48.790388298253,2.4451740423071002,1.897,E10
842,AILLANT-SUR-THOLON,47.876,3.353,1.939,SP95
843,CHATOU,48.8923050953,2.14405585465,1.949,Gazole
844,CARENTAN,49.307,-1.253,1.799,Gazole
845,RESSONS SUR MATZ,49.5236,2.72292,1.954,Gazole
846,CHARLY,45.654,4.793,1.939,Gazole
847,PECHBONNIEU,43.707,1.466,1.819,E10
848,MULHOUSE,47.739,7.292,1.832,E10
849,MONS EN BAROEUL,50.6450501179,3.09655197537,1.099,E85
850,Langres,47.87456,5.32348,1.937,SP98
851,AUREILHAN,43.248853174,0.0900200535935,1.909,SP95
852,SAINT-DIZIER,48.63059,4.9341,1.81,Gazole
853,Tarascon-sur-Ariège,42.845,1.598,1.279,E85
854,Tarascon-sur-Ariège,42.845,1.598,1.999,SP98
855,Saint-Pavace,48.032748895413995,0.19674858185650998,0.929,GPLc
856,Saint-Pavace,48.032748895413995,0.19674858185650998,1.909,SP98
857,Fuveau,43.445,5.553,1.119,E85
858,VILLEFRANCHE-DE-ROUERGUE,44.35769,2.0239,1.879,SP95
859,Cahors,44.474288298042,1.4287123688503,,
860,Gréasque,43.436,5.54,1.875,E10
861,BILLOM,45.729,3.34,1.929,SP95
862,Esbly,48.89668571755001,2.8152766036782,1.954,SP98
863,Bourg-lès-Valence,44.968,4.886,1.831,E10
864,CHAMPS,46.058707223,3.11405330762,2.049,E10
865,AVIGNON,43.94285490520001,4.81584355961,1.912,E10
866,BEZIERS,43.332,3.248,1.783,Gazole
867,Bayonne,43.512,-1.44,1.883,Gazole
868,Domont,49.027,2.339,1.953,E10
869,Nogent-sur-Vernisson,47.845,2.742,1.969,SP98
870,ORGELET,46.533,5.605,1.799,Gazole
871,SASSENAGE,45.205,5.664,1.787,Gazole
872,STE FORTUNADE,45.196,1.774,1.948,E10
873,VIENNE-EN-VAL,47.80104,2.13956,1.925,SP98
874,MARGUERITTES,43.875,4.45,2.054,Gazole
875,Catus,44.554,1.338,1.942,E10
876,Clermont-l'Hérault,43.61,3.463,1.888,SP95
877,LAPALISSE,46.248,3.63,1.88,SP95
878,Goven,48.005,-1.851,1.839,SP95
879,GENISSAC,44.8599234,-0.25698740000000003,1.87,E10
880,AUBIGNY-EN-ARTOIS,50.35,2.582,1.949,SP98
881,Susmiou,43.31906,-0.7712,1.929,SP98
882,Poitiers,46.56679,0.35738,1.699,Gazole
883,CHAMONIX-MONT-BLANC,45.912,6.861,1.889,SP95
884,Tours-sur-Marne,49.047,4.115,1.885,SP98
885,Montrevel-en-Bresse,46.334726399999994,5.1260021,1.812,E10
886,REVEL,43.4628684168,2.00552072067,1.755,Gazole
887,Wassy,48.496,4.945,1.858,E10
888,TROYES,48.294,4.083,1.901,Gazole
889,SAINT-SYMPHORIEN-LE-VALOIS,49.284,-1.567,1.879,SP95
890,LIMOGES,45.870008956300005,1.2684087631599998,1.806,E10
891,Finhan,43.914,1.224,1.859,Gazole
892,Verberie,49.30913,2.73049,1.849,Gazole
893,Verberie,49.30913,2.73049,1.959,SP95
894,SAINT-BRIEUC,48.522,-2.732,1.803,Gazole
895,Bonifacio,41.392,9.166,1.967,SP95
896,LA PLAINE-SUR-MER,47.141,-2.189,1.78,Gazole
897,DIEPPE,49.909,1.108,1.912,SP98
898,SAVERNE,48.741,7.376,1.825,Gazole
899,QUIMPER,47.992606927500006,-4.08351912843,1.927,E10
900,Cussy les Forges,47.467419859402,4.0803019554445,1.199,E85
901,ROMORANTIN-LANTHENAY,47.378,1.737,1.819,Gazole
902,SARZEAU,47.52762,-2.75723,1.883,SP98
903,DORNECY,47.434217269200005,3.5887370816099997,1.929,SP95
904,SENLIS,49.210866817181,2.5930622678757,1.109,E85
905,Châtellerault,46.824,0.56,1.749,Gazole
906,Bletterans,46.745,5.45,1.775,Gazole
907,Bletterans,46.745,5.45,1.879,SP95
908,VITROLLES,43.446460806624,5.2431698394589,2.169,SP98
909,AUNEAU,48.4782831809,1.7680381139499999,1.039,E85
910,BEAUJEU,46.154,4.619,1.929,Gazole
911,BEAUJEU,46.154,4.619,1.999,SP98
912,SARREBOURG,48.73981,7.07009,1.875,E10
913,Châlette-sur-Loing,48.0208954,2.737303,2.011,E10
914,RUMILLY,45.856339986284006,5.9484181554018996,1.826,E10
915,Louvigny,49.161,-0.4,1.909,SP98
916,Montayral,44.492,0.969,1.859,SP95
917,ARRAS,50.28087,2.78103,1.749,Gazole
918,ARRAS,50.28087,2.78103,1.932,SP98
919,Podensac,44.65647,-0.36582,1.89,SP95
920,Saint-Louis,47.59335,7.55569,2.032,SP98
921,SARAN,47.934,1.89,1.869,E10
922,Salviac,44.681215894782,1.2442146431766,1.95,SP95
923,Parcé-sur-Sarthe,47.803,-0.168,2.261,SP98
924,SAINT DESERT,46.752,4.718,1.839,E10
925,ORGON,43.791,5.028,1.826,E10
926,SAUZé-VAUSSAIS,46.133,0.12,1.729,Gazole
927,FONTENAY-LE-COMTE,46.459,-0.788,,
928,Bouguenais,47.168,-1.643,1.226,E85
929,Perpignan,42.667,2.892,,
930,LA FERTé-GAUCHER,48.78355,3.30653,1.879,E10
931,REAU,48.62473,2.59212,1.259,E85
932,CRACH,47.608,-2.997,1.829,E10
933,Gometz-la-Ville,48.67,2.12,1.889,SP95
934,Besse-et-Saint-Anastaise,45.509,2.936,1.879,E10
935,ALèS,44.10715,4.09387,1.879,SP95
936,Lens,50.427,2.806,1.806,Gazole
937,Marseille,43.289,5.46,1.859,E10
938,VEYNES,44.53627,5.83174,1.869,E10
939,AIGREFEUILLE-D'AUNIS,46.11624,-0.93553,1.099,E85
940,SAINT-JEAN-D'AULPS,46.235415653400004,6.65508238436,1.839,E10
941,CAMPUAC,44.57,2.592,1.89,SP98
942,Clermont-l'Hérault,43.618,3.452,1.089,GPLc
943,Grésy-sur-Aix,45.72,5.922,1.879,E10
944,SURGERES,46.111,-0.739,1.085,E85
945,ORIGNY-SAINTE-BENOITE,49.83722,3.49412,1.919,SP95
946,Hérouville-Saint-Clair,49.2002530377,-0.34489711733600004,1.84,E10
947,SAINT-MICHEL-CHEF-CHEF,47.17027,-2.14844,1.99,SP98
948,Vert-en-Drouais,48.76,1.24,1.779,Gazole
949,VALDAHON,47.148,6.331,1.882,SP98
950,Douarnenez,48.09234,-4.34503,1.848,SP95
951,BEUVRY,50.517,2.683,1.879,E10
952,Cotignac,43.524,6.151,1.959,SP98
953,Ludes,49.1616626,4.08109998,1.919,SP95
954,Saint-Geniez-d'Olt,44.46,2.965,1.839,Gazole
955,Saint-Julien-l'Ars,46.55889,0.49816,1.959,SP98
956,BUZANCAIS,46.89,1.401,1.841,E10
957,Grenade,43.761,1.3,1.779,Gazole
958,Hersin-Coupigny,50.452,2.637,1.119,E85
959,Maresché,48.197533,0.16889,1.922,E10
960,VERQUIèRES,43.8454877277,4.93273027405,1.888,SP95
961,LABèGE,43.551,1.504,1.819,E10
962,AMIENS,49.898,2.292,2.039,SP98
963,Avesnes-les-Aubert,50.192,3.385,1.869,Gazole
964,VOUJEAUCOURT,47.482,6.78,1.999,SP98
965,DECHY,50.34,3.1,1.859,E10
966,AUCH,43.664182784599994,0.591275479495,1.929,SP95
967,AUCH,43.664182784599994,0.591275479495,0.999,GPLc
968,Woippy,49.181,6.178,1.941,E10
969,LOON-PLAGE,51.001,2.244,1.879,Gazole
970,PLEUMELEUC,48.178,-1.92,1.749,Gazole
971,Saint-Marcel-sur-Aude,43.25362,2.91366,1.945,SP98
972,NANTES,47.241,-1.508,0.925,GPLc
973,BOUFFERE,46.969,-1.331,1.878,SP98
974,BALBIGNY,45.82099,4.17891,1.899,SP98
975,LOISY,48.860588172143,6.091693528860801,1.969,E10
976,Noé,43.345503550652,1.2641170039396,1.799,Gazole
977,ESCHAU,48.481,7.726,1.909,SP98
978,AVALLON,47.4982722302,3.89684379984,1.899,E10
979,Bollène,44.286892034091,4.7506355196328,1.81,Gazole
980,NIORT,46.343,-0.494,1.878,SP98
981,NICE,43.68801625970001,7.197364288269999,1.946,SP98
982,Saint-Pierre-du-Mont,43.886,-0.52,1.999,Gazole
983,ALèS,44.1113787899,4.09637855867,1.839,Gazole
984,MAULE,48.912,1.852,1.999,SP95
985,DIEPPE,49.919,1.086,1.795,Gazole
986,SAINT GERMAIN,48.261519408403004,4.0342037717194,1.789,Gazole
987,Bourg-Saint-Andéol,44.382,4.642,1.099,E85
988,Toujouse,43.824,-0.155,1.93,SP95
989,ROMBAS,49.236,6.109,2.079,SP98
990,Salles-d'Aude,43.2148856472,3.0923671173400002,2.044,E10
991,Le Grau-du-Roi,43.519,4.132,2.06,SP95
992,ÉCOUEN,49.03,2.39,1.92,E10
993,SAINT-MAURICE,48.327,7.333,1.999,SP95
994,METZ,49.126192,6.17853,0.999,GPLc
995,VIRIAT,46.236,5.263,1.879,Gazole
996,LONGUEVILLE,48.521,3.233,1.859,E10
997,GRIMAUD,43.265,6.541,1.199,E85
998,Valence,44.927,4.916,1.849,Gazole
999,Plaintel,48.415,-2.822,1.815,E10
1000,Saint-Affrique,43.957,2.875,1.939,E10
1001,Saint-Georges-de-Mons,45.939570999999994,2.837118,1.829,Gazole
1002,Perrigny,46.668,5.577,1.889,Gazole
1003,ROCHESERVIERE,46.9391326119,-1.50903142347,1.92,SP98
1004,Colmar,48.064,7.34,1.909,SP95
1005,Bagnols-en-Forêt,43.53923099000001,6.709598199999999,1.919,SP95
1006,Vallet,47.158229280939,-1.2747920508980999,1.035,E85
1007,CERNAY,47.7936523884,7.17024938652,1.903,SP98
1008,Savenay,47.361518370000006,-1.95614892,0.989,GPLc
1009,FALAISE,48.911,-0.206,1.899,SP95
1010,ANGERS,47.461,-0.616,1.779,Gazole
1011,VILLERS-SOUS-SAINT-LEU,49.208,2.391,1.849,E10
1012,SAINT-CYR-SUR-LOIRE,47.4258570023,0.6561790748409999,0.992,GPLc
1013,Beaupréau,47.204,-0.977,1.929,SP98
1014,ALZONNE,43.254648546805996,2.1702284307732,1.819,Gazole
1015,Groisy,45.99932994177,6.1669245034257,2.129,E10
1016,Laon,49.563632230136,3.6456861996276,1.908,SP95
1017,SALOUEL,49.871,2.261,1.826,E10
1018,Villejésus,45.899920641752,0.014846175679999999,1.879,SP95
1019,Étrépagny,49.301,1.619,1.939,SP98
1020,Châteauponsac,46.136,1.268,1.845,E10
1021,Joinville-le-Pont,48.822,2.465,2.009,Gazole
1022,Orgelet,46.521,5.611,1.859,Gazole
1023,Pacy-sur-Eure,49.01,1.397,1.919,SP98
1024,Orléans,47.882,1.903,1.891,E10
1025,GARGES-LèS-GONESSE,48.974987592299996,2.4176564324,1.989,SP98
1026,Sartilly-Baie-Bocage,48.752,-1.459,1.059,E85
1027,CHâTEAU-LANDON,48.14461,2.6942,1.959,SP98
1028,LECTOURE,43.917,0.628,2.04,Gazole
1029,LECTOURE,43.917,0.628,1.98,SP95
1030,LECTOURE,43.917,0.628,0.84,GPLc
1031,Mussy-sur-Seine,47.975,4.494,1.224,E85
1032,Ploërmel,47.92,-2.361,1.952,Gazole
1033,Les Deux-Alpes,45.019,6.125,2.04,SP98
1034,REIMS,49.25166,4.04689,1.941,SP98
1035,Grandrieu,44.784,3.636,1.869,SP95
1036,SOURDEVAL,48.72,-0.922,1.849,E10
1037,VILLENEUVE-LOUBET,43.639900764176,7.1385990904824,1.848,SP98
1038,ARINTHOD,46.394,5.57,1.959,SP98
1039,BOLBEC,49.573,0.468,0.957,GPLc
1040,BOLBEC,49.573,0.468,1.998,E10
1041,ERNEE,48.2923999416,-0.926654863355,1.869,E10
1042,Autechaux,47.3777875,6.3776164115731,1.979,SP98
1043,AXAT,42.8041025698,2.23146003573,1.98,E10
1044,Luc-en-Diois,44.59145,5.45003,1.924,SP95
1045,RUFFEC,46.0311560425,0.20408859439700003,1.859,SP95
1046,BANS,46.982,5.582,1.959,SP98
1047,Camblanes-et-Meynac,44.76511,-0.4852,1.82,E10
1048,Bourgoin-Jallieu,45.584,5.297,1.889,SP98
1049,LéOGNAN,44.734,-0.599,1.799,Gazole
1050,Saint-Gervais-en-Belin,47.876,0.216,1.789,Gazole
1051,VINEUIL,47.569,1.371,1.789,Gazole
1052,Gabarret,43.98646,0.00999000000001,1.919,SP95
1053,CHALLANS,46.836,-1.872,1.709,Gazole
1054,TINTENIAC,48.32873,-1.84156,1.869,SP95
1055,AUBENAS,44.614,4.406,1.969,SP98
1056,UZEL,48.287,-2.827,2.032,SP98
1057,Cany-Barville,49.79179,0.63439,1.94,SP98
1058,MARMOUTIER,48.701,7.375,1.83,E10
1059,WISSEMBOURG,49.029,7.96,1.93,SP98
1060,Les Salles,45.856,3.814,2.265,SP98
1061,Castelnau-le-lez,43.64238769999999,3.9029789,1.099,E85
1062,CHAMBERY,45.56727366449999,5.9350464324,1.939,SP98
1063,SAINT-GENIèS-DE-MALGOIRèS,43.945,4.227,1.099,E85
1064,HATTEN,48.90243,7.96984,1.887,SP95
1065,TOULOUSE,43.58449,1.37228,1.759,Gazole
1066,FISMES,49.308,3.668,1.838,E10
1067,Confolens,45.999718679101996,0.67353265612794,1.839,E10
1068,Maché,46.791461,-1.7072729999999998,1.919,Gazole
1069,Warmeriville,49.34934483311,4.208877065549999,1.96,SP98
1070,L'UNION,43.65517,1.47066,1.949,SP98
1071,AURILLAC,44.910339878759004,2.4534163077782,1.86,Gazole
1072,AURILLAC,44.910339878759004,2.4534163077782,1.92,SP95
1073,BOUCHAIN,50.2924914941,3.30109415523,1.939,SP95
1074,WATTRELOS,50.697,3.21,1.829,E10
1075,Hazebrouck,50.739,2.549,1.868,SP95
1076,Saint-Nicolas-de-la-Grave,44.06415,1.02228,1.799,Gazole
1077,LIévin,50.422,2.774,1.809,E10
1078,NEUFCHâTEAU,48.36903,5.705138100000001,1.823,Gazole
1079,LA ROCHEFOUCAULD,45.736,0.386,1.939,SP95
1080,LA CIOTAT,43.193,5.6,1.959,SP98
1081,Montmélian,45.50395,6.06877,1.798,Gazole
1082,GUISCARD,49.655,3.05,1.884,Gazole
1083,Châtillon-en-Bazois,47.045,3.643,1.994,Gazole
1084,Châtillon-en-Bazois,47.045,3.643,2.088,SP95
1085,RAMBOUILLET,48.625,1.83,0.972,GPLc
1086,LAVAL,48.06952,-0.7508,1.829,E10
1087,SAINT-JEOIRE,46.135,6.461,1.879,SP95
1088,OUTREAU,50.70189850960001,1.6083952491499998,1.779,Gazole
1089,OUTREAU,50.70189850960001,1.6083952491499998,1.899,SP95
1090,OUTREAU,50.70189850960001,1.6083952491499998,1.079,E85
1091,Sallèles-d'Aude,43.25654,2.94731,1.94,SP95
1092,LUDRES,48.616467979919,6.1753041191102005,1.902,SP95
1093,ITXASSOU,43.338,-1.405,1.885,SP95
1094,Nanteuil-lès-Meaux,48.93756,2.8801,1.849,Gazole
1095,Auxerre,47.797,3.547,1.896,SP95
1096,MARSEILLE,43.333,5.46,1.844,SP98
1097,VITRé,48.114,-1.208,1.732,Gazole
1098,Fournels,44.817,3.117,1.885,SP95
1099,Saint-Apollinaire,47.333,5.092,1.759,Gazole
1100,TOURGéVILLE,49.356,0.071,0.957,GPLc
1101,Voisins-le-Bretonneux,48.756,2.055,1.939,SP95
1102,MARQUETTE-LEZ-LILLE,50.681,3.063,1.899,SP98
1103,PONTIVY,48.053178995,-2.95900321221,1.779,Gazole
1104,Surgères,46.10868,-0.7682699999999899,1.838,SP98
1105,BIARRITZ,43.48153,-1.54269,2.081,SP98
1106,NEUVY-SUR-BARANGEON,47.31545,2.25574,1.939,Gazole
1107,Beure,47.207,5.999,1.999,SP98
1108,TAIN-L'HERMITAGE,45.068632052999995,4.86562184044,1.799,E10
1109,ESTAGEL,42.772389800000006,2.6994363,2.019,SP95
1110,PORTET-SUR-GARONNE,43.543,1.404,1.865,SP95
1111,COMBRONDE,45.984,3.087,1.869,E10
1112,Vern-sur-Seiche,48.055,-1.611,1.772,Gazole
1113,Saint-Contest,49.20072,-0.39910000000000995,1.889,SP95
1114,BRUYèRES-ET-MONTBéRAULT,49.532,3.653,1.899,Gazole
1115,AVOINE,47.214,0.169,1.933,E10
1116,Guéret,46.177,1.877,1.879,E10
1117,BORDEAUX,44.863,-0.567,1.879,E10
1118,EPOISSES,47.501,4.177,1.939,SP95
1119,CLUSES,46.069,6.569,1.899,SP95
1120,BREST,48.41315,-4.48982,1.099,E85
1121,Granville,48.841,-1.577,1.884,Gazole
1122,MIMIZAN,44.193,-1.229,1.268,E85
1123,TRESSES,44.838,-0.486,1.904,SP98
1124,LANNION,48.73431822,-3.43779114,1.779,Gazole
1125,SEDAN,49.706,4.936,1.879,E10
1126,LORIENT,47.755,-3.39,1.779,Gazole
1127,MATIGNON,48.6,-2.287,1.819,E10
1128,VENERQUE,43.426,1.457,1.099,E85
1129,Pontarlier,46.893,6.365,1.999,SP98
1130,LA GARNACHE,46.891,-1.828,1.885,SP95
1131,AIZENAY,46.737,-1.611,1.854,E10
1132,ARNAGE,47.94,0.184,0.924,GPLc
1133,SAINTES,45.747,-0.64,2.048,SP98
1134,PLOëRMEL,47.937,-2.402,1.779,Gazole
1135,Saint-Fulgent,46.85788,-1.17281,1.899,SP98
1136,Méricourt,50.405,2.876,1.891,SP98
1137,BOULAZAC,45.186,0.775,1.059,E85
1138,Saint-Mitre-les-Remparts,43.4394725,5.0353807,1.859,E10
1139,MARVEJOLS,44.562428946000004,3.29229521343,1.989,SP95
1140,VERNEUIL-SUR-AVRE,48.739,0.942,1.819,Gazole
1141,SAVIGNé-SUR-LATHAN,47.44,0.332,1.855,E10
1142,Chaudes-Aigues,44.856,3.007,1.999,Gazole
1143,TOULON,43.12814,5.90563,1.889,Gazole
1144,HOUSSEN,48.13,7.369,1.119,E85
1145,HOUSSEN,48.13,7.369,0.999,GPLc
1146,LA FERTé-MACé,48.575,-0.37,0.899,GPLc
1147,Saint-Florent-sur-Cher,47.005,2.267,1.849,E10
1148,DOUÉ LA FONTAINE,47.196,-0.265,1.959,SP98
1149,COULOMMIERS,48.804,3.091,1.098,E85
1150,MEAUX,48.95674,2.90382,1.954,E10
1151,MARSEILLE,43.26291,5.39305,1.782,Gazole
1152,Blérancourt,49.5197529,3.1492908,1.866,Gazole
1153,BERGERAC,44.85,0.493,1.581,SP95
1154,CAUSSADE,44.155515,1.52676783,1.089,E85
1155,Barbentane,43.908,4.773,1.849,E10
1156,ROCHEMAURE,44.6,4.717,1.934,E10
1157,CLERMONT-FERRAND,45.766,3.125,1.099,E85
1158,Callac,48.407,-3.434,1.899,SP98
1159,SOUSTONS,43.746538650000005,-1.3211712497344,1.794,Gazole
1160,Montgenèvre,44.934,6.733,1.85,E10
1161,Le Cannet,43.571742369999996,7.016243639999999,1.895,E10
1162,Saint-Martin-de-Queyrières,44.853,6.582,1.84,Gazole
1163,SAINT-BRICE-SOUS-FORêT,49.00763,2.35163,1.929,SP98
1164,VIZILLE,45.083,5.766,0.837,GPLc
1165,ATHIS-MONS,48.712,2.371,1.859,E10
1166,SAINT-ANDRé-LES-ALPES,43.967,6.507,2.1,SP95
1167,BORMES-LES-MIMOSAS,43.139,6.353,1.909,E10
1168,Forcalqueiret,43.339123010265,6.0835924517371005,1.855,Gazole
1169,HAUBOURDIN,50.626,2.967,1.849,E10
1170,MAGNY-LES-HAMEAUX,48.725,2.083,1.869,E10
1171,DIGOSVILLE,49.65345914847799,-1.5493246887909,1.94,SP98
1172,CREST,44.726405006,5.03002404804,1.049,GPLc
1173,LE MUY,43.47,6.562,1.829,Gazole
1174,LOUVIERS,49.209,1.183,1.119,E85
1175,AIMARGUES,43.696285922600005,4.20011726025,1.099,E85
1176,AIMARGUES,43.696285922600005,4.20011726025,1.898,SP98
1177,Bruges,44.888,-0.579,1.999,E10
1178,Langon,44.542,-0.254,1.775,Gazole
1179,Drumettaz-Clarafond,45.657,5.911,1.199,E85
1180,FAVARS,45.26712,1.6793,2.04,SP95
1181,Orval,46.724,2.461,1.119,E85
1182,BONNEVILLE,46.084,6.404,1.119,E85
1183,Oeting,49.174,6.918,1.863,Gazole
1184,Avesnes-sur-Helpe,50.13,3.938,1.879,E10
1185,Poitiers,46.576,0.345,1.151,E85
1186,PERRIERS-SUR-ANDELLE,49.413,1.366,1.879,E10
1187,VOREPPE,45.3,5.628,1.845,E10
1188,VENETTE,49.408,2.781,0.972,GPLc
1189,VENETTE,49.408,2.781,1.839,E10
1190,Brumath,48.7241786,7.6910941,1.229,E85
1191,Tarascon,43.795,4.693,1.823,E10
1192,CAUMONT-L'ÉVENTé,49.08893,-0.8136,1.879,E10
1193,Patay,48.046,1.691,1.819,Gazole
1194,Patay,48.046,1.691,1.919,SP98
1195,MARTIGUES,43.418,5.053,1.883,SP98
1196,Besançon,47.23329,5.98521,1.839,E10
1197,VALS-PRèS-LE-PUY,45.0272100503,3.88039236649,1.819,E10
1198,LONS-LE-SAUNIER,46.6740413018,5.53981363906,1.784,Gazole
1199,Saint-Cloud,48.842,2.202,1.869,Gazole
1200,BOURG-DE-PéAGE,45.035,5.053,1.853,SP98
1201,Vienne,45.519,4.919,1.784,Gazole
1202,Monthermé,49.88,4.742,1.963,E10
1203,VERNEUIL-SUR-VIENNE,45.85,1.132,1.214,E85
1204,Noisy-le-Grand,48.851,2.535,1.854,Gazole
1205,Le Blanc-Mesnil,48.92779230000001,2.4739954,2.159,SP98
1206,HAGETMAU,43.637,-0.614,1.872,E10
1207,Sauviat-sur-Vige,45.904242763602,1.5945068099733,1.785,Gazole
1208,ARGENTEUIL,48.95763,2.27971,1.99,E10
1209,Saint-Jean-de-Luz,43.382,-1.649,1.883,Gazole
1210,Fos-sur-Mer,43.42,4.979,1.815,E10
1211,Saint-Martin-des-Besaces,49.011,-0.852,1.892,Gazole
1212,PLAISIR,48.829,1.958,0.96,GPLc
1213,PLAISIR,48.829,1.958,1.881,E10
1214,Moirans-en-Montagne,46.439,5.721,1.799,Gazole
1215,SAINTE-JAMME-SUR-SARTHE,48.145,0.17,1.919,SP98
1216,MULHOUSE,47.741,7.307,1.918,SP98
1217,LENS,50.426,2.82,1.932,SP98
1218,Salles-sur-Mer,46.084,-1.074,1.809,E10
1219,BORDEAUX,44.855,-0.592,1.839,E10
1220,Kervignac,47.758147046349,-3.2375896664638004,1.741,Gazole
1221,Noisy-le-Grand,48.83,2.561,1.992,E10
1222,Varades,47.387,-1.026,1.9,Gazole
1223,SAINT-ASTIER,45.146,0.525,1.825,E10
1224,SAINT-PHILBERT-DE-GRAND-LIEU,47.04729577,-1.6403904800000002,0.929,GPLc
1225,SAINT-PHILBERT-DE-GRAND-LIEU,47.04729577,-1.6403904800000002,1.809,E10
1226,Le Loroux-Bottereau,47.237,-1.35,1.859,E10
1227,Laval-sur-Vologne,48.188,6.688,1.89,Gazole
1228,Migné-Auxances,46.632,0.356,1.759,Gazole
1229,Uzel,48.281,-2.839,1.919,SP95
1230,Paris,48.87366,2.292015,2.239,SP98
1231,SERVAS,46.128,5.163,1.819,E10
1232,Fonsorbes,43.536,1.231,1.888,SP98
1233,Villaines-la-Gonais,48.124964192082,0.62210350597264,2.044,Gazole
1234,PUGNAC,45.076,-0.499,1.829,Gazole
1235,Amilly,47.974,2.734,1.049,GPLc
1236,MONTAUBAN,44.025,1.331,1.879,E10
1237,Decazeville,44.559131275643,2.2581246898855003,1.099,E85
1238,Saint-Hilaire-de-Loulay,46.979878899999996,-1.2992337729927,1.719,Gazole
1239,TALLENDE,45.669,3.109,1.839,E10
1240,Belfort,47.64,6.868,1.949,E10
1241,BEGAAR,43.8229686,-0.84894289,1.869,SP95
1242,ÉCUEILLé,47.080830474100004,1.34648212627,1.948,SP95
1243,AUPS,43.617,6.22,1.889,SP95
1244,REICHSHOFFEN,48.93342,7.66915,1.829,Gazole
1245,Le Cannet,43.5726,7.0006,1.899,SP95
1246,CAPBRETON,43.645,-1.426,1.115,E85
1247,Croisilles,50.195,2.888,1.949,SP98
1248,CHORGES,44.552,6.256,1.783,Gazole
1249,CHORGES,44.552,6.256,1.831,E10
1250,VILLEDIEU-LES-POêLES,48.847221839944005,-1.2107391369823,1.822,E10
1251,TASSIN-LA-DEMI-LUNE,45.757,4.781,1.91,SP98
1252,CHAMPDENIERS-SAINT-DENIS,46.488,-0.398,1.735,Gazole
1253,Panazol,45.82753,1.2918,1.774,Gazole
1254,VOREPPE,45.306,5.624,1.169,E85
1255,NANTEUIL-LE-HAUDOUIN,49.136,2.801,1.899,SP95
1256,Faches-Thumesnil,50.609,3.06,1.934,E10
1257,THOUROTTE,49.479,2.868,1.838,E10
1258,Le Chambon-Feugerolles,45.405,4.341,1.901,SP95
1259,LONDINIERES,49.83,1.404,1.899,SP95
1260,AUSSONNE,43.68513,1.32722,1.799,Gazole
1261,PARIS,48.8475903,2.3034181,2.05,Gazole
1262,LE PERTUIS,45.097,4.059,1.958,Gazole
1263,LABEGE,43.531,1.535,1.922,Gazole
1264,Grenade,43.769,1.296,1.94,SP95
1265,Coutances,49.062,-1.437,1.05,GPLc
1266,Chapelle-d'armentières,50.673,2.897,1.853,E10
1267,Pont-de-l'Isère,45.01933,4.87541,1.984,Gazole
1268,Douai,50.381,3.085,1.759,Gazole
1269,Douai,50.381,3.085,1.069,E85
1270,Saint-Claude,46.38038,5.83492,1.867,SP95
1271,AUXI-LE-CHâTEAU,50.231,2.114,1.099,E85
1272,BAULNE,48.507,2.37442,1.099,E85
1273,Aix-en-Provence,43.555,5.42,1.828,E10
1274,Salins-les-Thermes,45.475,6.528,1.829,Gazole
1275,Albaret-Sainte-Marie,44.892,3.248,2.139,E10
1276,LOCHES,47.13,0.984,1.925,SP98
1277,grane,44.734345977585,4.925049866101,1.1,E85
1278,Rennes,48.092,-1.68,1.799,E10
1279,Tignes,45.46061,6.90144,2.019,Gazole
1280,Vierzon,47.231,2.088,1.889,SP95
1281,MARSEILLE,43.324,5.454,1.099,E85
1282,La Balme-de-Sillingy,45.974,6.033,1.899,SP95
1283,Froges,45.26645,5.91531,1.91,SP95
1284,QUIMPERLE,47.88,-3.554,1.762,Gazole
1285,École-Valentin,47.277,5.994,1.869,Gazole
1286,BEUZEVILLE,49.373,0.66,1.33,E85
1287,MONTAUBAN,44.02556,1.33207,1.099,E85
1288,ROSNY-SUR-SEINE,48.9923,1.63231,2.006,SP98
1289,SAINT-JEAN-DE-LUZ,43.403,-1.627,1.889,SP95
1290,Saint-Benoît-du-Sault,46.44388,1.3953,1.799,Gazole
1291,ANNONAY,45.235,4.672,2.019,SP95
1292,Châtillon-sur-Seine,47.871,4.57,1.21,GPLc
1293,LAVAUR,43.704,1.8,1.813,Gazole
1294,SARLAT-LA-CANéDA,44.87349,1.23042,1.779,Gazole
1295,SèTE,43.414,3.716,0.957,GPLc
1296,SèTE,43.414,3.716,2.039,SP98
1297,Le Chesnay,48.824,2.128,2.084,SP98
1298,CHâTEAUBRIANT,47.705,-1.389,1.854,Gazole
1299,CIREY-SUR-VEZOUZE,48.579,6.943,1.879,Gazole
1300,La Crau,43.135,6.048,1.069,GPLc
1301,Sartène,41.619,8.968,1.94,Gazole
1302,MELGVEN,47.908411231294004,-3.8379493198518,1.949,SP95
1303,Treillières,47.338,-1.655,2.124,E10
1304,Outreau,50.651,1.609,1.927,SP95
1305,AURAY,47.664,-3.003,1.0,GPLc
1306,Haspres,50.259436401272,3.418309327478,1.94,Gazole
1307,LOSSE,44.064,-0.057,1.799,Gazole
1308,Verneuil-sur-Seine,48.978,1.978,1.959,Gazole
1309,REBAIS,48.84615,3.23114,1.959,SP95
1310,Saint-Médard-en-Jalles,44.884,-0.691,0.977,GPLc
1311,Saint-Médard-en-Jalles,44.884,-0.691,1.81,E10
1312,SAMATAN,43.49,0.932,1.929,SP98
1313,LYON 7,45.737,4.824,2.039,SP98
1314,VILLERS-BOCAGE,49.08,-0.648,1.879,E10
1315,Persan,49.146667120000004,2.2837288200000003,1.999,E10
1316,Salaise-sur-Sanne,45.34886,4.804037,1.763,Gazole
1317,Authon-du-Perche,48.194,0.899,1.929,SP98
1318,MOLSHEIM,48.529266519707,7.4974740576593994,1.911,Gazole
1319,Saugues,44.96351,3.5446,1.919,SP95
1320,Bezons,48.936888607759,2.2069830018219,2.024,E10
1321,JOSSELIN,47.964,-2.545,1.879,SP95
1322,Duras,44.665,0.194,1.97,E10
1323,TOTES,49.681,1.046,1.789,E10
1324,Rieupeyroux,44.306,2.249,1.809,Gazole
1325,Saint-Pryvé-Saint-Mesmin,47.8800466,1.8700648000000002,1.835,E10
1326,SAINT-MARS-DU-DéSERT,47.361,-1.408,1.929,SP98
1327,Saint-Victor,46.37713,2.59264,1.849,E10
1328,MONSEGUR,44.64988,0.08806,1.949,SP95
1329,SAVINES-LE-LAC,44.525,6.408,1.791,Gazole
1330,SAVINES-LE-LAC,44.525,6.408,1.833,E10
1331,SAVINES-LE-LAC,44.525,6.408,1.922,SP98
1332,Milly-la-Forêt,48.399,2.437,1.882,E10
1333,Hénin-Beaumont,50.41839,2.94714,1.928,E10
1334,BLIGNY-SUR-OUCHE,47.107,4.655,1.929,SP95
1335,BLIGNY-SUR-OUCHE,47.107,4.655,1.999,SP98
1336,Mont-de-Marsan,43.88554,-0.49499,1.775,Gazole
1337,GONESSE,48.99401,2.42407,1.95,SP98
1338,Andouillé,48.174,-0.783,1.929,SP95
1339,NOGENT-SUR-SEINE,48.49240759359999,3.51288606446,1.899,SP95
1340,BEUVRY-LA-FORêT,50.459,3.289,1.939,SP95
1341,PESSAC,44.781263681300004,-0.649891423468,2.068,SP98
1342,Mondelange,49.261857768022,6.174782426962,1.868,E10
1343,Le Mans,47.9974,0.22799,1.879,SP95
1344,REIMS,49.275,4.017,2.069,SP98
1345,Bergerac,44.858,0.482,1.099,E85
1346,MERCIN-ET-VAUX,49.38127,3.30822,1.803,Gazole
1347,LAUZERTE,44.261,1.145,1.939,SP98
1348,Landrecies,50.11864,3.70226,1.89,Gazole
1349,CAHORS,44.436,1.552,1.799,Gazole
1350,Saint-Ambroix,44.255,4.203,1.781,Gazole
1351,ORANGE,44.13559,4.81309,1.139,E85
1352,ALIXAN,44.976,5.028,1.999,SP95
1353,Aubusson,45.964,2.193,1.784,Gazole
1354,BILLY-BERCLAU,50.517025582202,2.8646137619018,1.929,SP98
1355,lalinde,44.835514997349996,0.7286001302282,2.142,SP95
1356,SAINT-JUST-MALMONT,45.330450820699994,4.31906795317,1.797,Gazole
1357,ROANNE,46.03273,4.06744,1.979,SP98
1358,MERDRIGNAC,48.19538,-2.41743,1.75,Gazole
1359,Sancey,47.301796258093,6.569972688391,1.909,Gazole
1360,ARCIS-SUR-AUBE,48.534,4.156,1.819,Gazole
1361,BONDY,48.907,2.485,2.089,SP98
1362,BRIVE-LA-GAILLARDE,45.158,1.563,1.862,E10
1363,Metz,49.107,6.231,1.939,E10
1364,Viry-Noureuil,49.64287,3.2595,1.809,Gazole
1365,ÉTIOLLES,48.639,2.458,1.939,SP98
1366,Saint-Pierre-des-Nids,48.4,-0.105,2.1,SP98
1367,LE MANS,47.98,0.221,1.792,Gazole
1368,Mayet,47.757,0.272,1.999,SP95
1369,MUROL,45.576,2.932,1.91,Gazole
1370,Saint-Pourçain-sur-Sioule,46.29,3.293,1.871,E10
1371,La chapelle sur Erdre,47.285,-1.55,1.896,SP98
1372,ST PIERRE DES CORPS,47.39668,0.71715,1.936,E10
1373,LIMOGES,45.907905756291,1.2925191624324,1.06,GPLc
1374,SAMOENS,46.08524803,6.7053419299999995,1.909,SP95
1375,Saint-Laurent-en-Royans,45.033,5.309,1.947,SP95
1376,CLERMONT-FERRAND,45.783545183252,3.1229132480228,1.833,E10
1377,RUY-MONTCEAU,45.589,5.297,1.789,Gazole
1378,LE HAVRE,49.49,0.098,1.928,E10
1379,EPINAY SUR SEINE,48.954,2.335,1.949,SP98
1380,COLOMBELLES,49.19,-0.299,1.859,E10
1381,MOUTHE,46.716,6.196,1.979,SP98
1382,DECIZE,46.821,3.452,1.96,SP98
1383,NICE,43.68588,7.23677,1.951,SP98
1384,Ermont,48.98975,2.25717,2.099,SP98
1385,Salon-de-Provence,43.634,5.091,1.119,E85
1386,Lannilis,48.57,-4.512,1.799,E10
1387,Val-de-Meuse,47.977647915995995,5.4981537450629,1.054,GPLc
1388,CHAVAGNES EN PAILLERS,46.874,-1.284,1.978,Gazole
1389,CHAVAGNES EN PAILLERS,46.874,-1.284,1.17,E85
1390,Vaiges,48.039,-0.475,1.939,SP98
1391,Petite-Forêt,50.376,3.474,0.986,GPLc
1392,Petite-Forêt,50.376,3.474,1.919,SP98
1393,MONTRABE,43.65,1.532,1.798,Gazole
1394,Marly-le-Roi,48.872,2.105,1.939,Gazole
1395,BLAYE,45.127,-0.643,1.041,E85
1396,GAILLAC,43.877,1.908,1.959,SP98
1397,Le Bois-d'Oingt,45.922,4.58,1.855,SP95
1398,VOIRON,45.36,5.6,1.939,SP98
1399,Grillon,44.394231137862,4.942068179992599,1.795,Gazole
1400,TESSANCOURT-SUR-AUBETTE,49.01261117295599,1.9092504310608,1.909,E10
1401,ORNANS,47.11,6.126,1.949,SP95
1402,Bar-sur-Aube,48.238,4.701,1.939,SP95
1403,FOUCHERANS,47.080169000000005,5.4622,1.779,Gazole
1404,Châtenois,48.298678018473,5.849774933507301,1.916,Gazole
1405,VERNET,43.438,1.426,2.009,SP95
1406,GUISE,49.90316,3.62899,1.795,Gazole
1407,Saint-Paul-lez-Durance,43.686,5.713,2.046,SP95
1408,SAINT-SULPICE-LE-GUéRéTOIS,46.183,1.846,2.025,E10
1409,CLERMONT FERRAND,45.78906,3.11795,1.929,E10
1410,Carcassonne,43.22564,2.32841,1.869,E10
1411,FLERS,48.742,-0.563,1.016,E85
1412,CHAMBRY,49.587,3.649,1.789,Gazole
1413,Sauvigny-les-Bois,46.94167,3.25919,1.932,SP98
1414,LORMONT,44.874,-0.506,1.014,GPLc
1415,LORMONT,44.874,-0.506,1.942,E10
1416,HOUILLES,48.924,2.205,1.942,SP98
1417,COLOMBIERS,43.309,3.168,1.829,SP95
1418,ATHIS MONS,48.706,2.369,2.119,SP98
1419,Marquise,50.8242,1.71061,1.847,E10
1420,Dému,43.76505,0.16781,2.071,SP98
1421,Saint-Fargeau-Ponthierry,48.53167,2.53511,2.059,SP98
1422,SAINT-HILAIRE-DE-RIEZ,46.713,-1.961,1.882,SP98
1423,Saint-Lô,49.112,-1.051,1.799,Gazole
1424,Saillenard,46.69067,5.3663,1.789,Gazole
1425,Corte,42.301790177065,9.1575178955876,1.95,Gazole
1426,ORSAY,48.69762,2.18628,1.988,E10
1427,Deuil-la-Barre,48.96829,2.31584,1.949,Gazole
1428,SAINT-MALO,48.625,-1.994,0.969,GPLc
1429,LE CAYLAR,43.86449,3.31188,2.194,SP98
1430,PERSAN,49.146,2.282,1.789,Gazole
1431,NANCY,48.691,6.193,1.931,Gazole
1432,QUIMPER,47.9819033259,-4.07369166369,1.871,SP98
1433,Châtenay-Malabry,48.763,2.278,2.139,SP98
1434,Saint-Vincent-de-Paul,43.741,-1.018,1.938,E10
1435,CREIL,49.248,2.477,0.957,GPLc
1436,ste lucie de porto vecchio,41.7,9.348,1.978,SP95
1437,Parentis-en-Born,44.353,-1.08,1.859,E10
1438,ROESCHWOOG,48.823,8.031,1.789,Gazole
1439,LA BRESSE,48.00647,6.87886,1.909,SP95
1440,CREANCES,49.199,-1.568,1.935,SP98
1441,Loures-Barousse,43.024,0.603,1.875,SP95
1442,GRENOBLE,45.183,5.725,1.893,Gazole
1443,RILHAC RANCON,45.89885,1.31178,1.849,Gazole
1444,SAINT-JEAN-DE-BRAYE,47.919,1.982,2.019,SP98
1445,Saujon,45.674,-0.944,1.099,E85
1446,Sainghin-en-Weppes,50.56437216,2.8992434000000005,1.8,Gazole
1447,SAINT-MARTIN-BOULOGNE,50.738,1.623,1.865,Gazole
1448,PUYGOUZON,43.89247502999999,2.16522366,1.194,E85
1449,REIMS,49.26,4.063,1.938,SP98
1450,Saint-Martin-de-Londres,43.783,3.737,1.929,SP98
1451,CLEGUEREC,48.127,-3.056,1.96,SP95
1452,LOURDES,43.088,-0.044,1.199,E85
1453,LOURDES,43.088,-0.044,1.887,E10
1454,Sète,43.40612,3.70318,1.819,Gazole
1455,Fains-Véel,48.787,5.14,1.938,SP98
1456,PACY-SUR-EURE,49.015,1.385,1.789,Gazole
1457,EBREUIL,46.119,3.094,1.999,SP98
1458,AUDENGE,44.696,-0.979,1.769,Gazole
1459,Les Hautes-Rivières,49.873,4.849,2.065,SP98
1460,LA VILLE-DU-BOIS,48.67,2.277,1.781,Gazole
1461,LA ROCHE-POSAY,46.7942009905,0.797828862365,1.809,Gazole
1462,LA GAUDE,43.717643239089,7.1524007133225,1.89,Gazole
1463,Sougé-le-Ganelon,48.317,-0.025,1.939,SP98
1464,WINGLES,50.497,2.867,1.273,E85
1465,LA COURONNE,45.620118,0.10582200000000001,1.782,Gazole
1466,Montreuil-sur-Ille,48.30969,-1.6672,1.829,Gazole
1467,Marignane,43.419274837635,5.2233250933645,1.919,SP98
1468,TARASCON-SUR-ARIèGE,42.85117,1.60378,2.099,SP98
1469,Évreux,49.042,1.129,1.867,SP95
1470,SAINT-JEAN-D'ANGéLY,45.944,-0.505,1.35,GPLc
1471,SAINTE-FOY-LèS-LYON,45.7217027552,4.7916727218899995,1.887,Gazole
1472,Criel-sur-Mer,50.012,1.316,1.099,E85
1473,MONTEVRAIN,48.853,2.761,1.92,Gazole
1474,Saint-Épain,47.16719,0.6305,2.004,Gazole
1475,Coulanges-lès-Nevers,47.01133,3.17801,1.939,SP98
1476,Gières,45.181,5.786,1.883,Gazole
1477,LE RUSSEY,47.1579743772,6.731228006769999,1.939,E10
1478,NEMOURS,48.26687,2.70651,1.92,Gazole
1479,PITHIVIERS,48.184,2.251,1.84,E10
1480,Villeneuve-d'Ascq,50.65925,3.13527,1.844,E10
1481,CRéPY-EN-VALOIS,49.227,2.884,1.969,SP98
1482,DABO,48.676,7.202,2.03,SP98
1483,LéZIGNAN-CORBIèRES,43.189,2.753,1.869,SP95
1484,BAILLEAU-LE-PIN,48.364,1.33,1.899,SP98
1485,Migennes,47.973,3.511,1.843,E10
1486,Medis,45.6656317,-0.943392,1.795,E10
1487,ROMANS-SUR-ISèRE,45.0434674082,5.02932885248,1.789,Gazole
1488,Choisy-le-Roi,48.77084,2.4091,2.012,E10
1489,TOULON SUR ALLIER,46.506387000000004,3.3617220000000003,1.99,Gazole
1490,Le Grand-Quevilly,49.41,1.033,1.959,E10
1491,SAVIGNé-L'ÉVêQUE,48.076,0.297,1.999,SP95
1492,SAN-NICOLAO,42.368,9.507,1.93,SP95
1493,Nanterre,48.888,2.188,1.179,E85
1494,ETAMPES,48.452,2.173,1.109,E85
1495,Domene,45.207,5.828,1.82,Gazole
1496,ANGLET,43.492,-1.533,,
1497,BULLY-LES-MINES,50.448,2.72,1.934,SP98
1498,Toulouse,43.57413,1.4736,1.95,SP95
1499,MAGNY-COURS,46.88553,3.15151,1.925,SP95
1500,Ailly-sur-Somme,49.92917,2.19471,1.97,Gazole
1501,LISSES,48.59986,2.4344,1.868,E10
1502,Mauléon-Licharre,43.223,-0.888,1.99,E10
1503,DRAVEIL,48.681401572312,2.4293925471744,1.879,E10
1504,Grand-Fougeray,47.724,-1.733,1.819,E10
1505,BONSECOURS,49.418,1.133,1.769,Gazole
1506,Chilly-Mazarin,48.713,2.298,2.099,SP98
1507,Réalmont,43.77115,2.18349,1.898,SP98
1508,Montgeron,48.691,2.454,1.059,GPLc
1509,Montgeron,48.691,2.454,2.009,E10
1510,TANINGES,46.102,6.59,2.199,SP98
1511,ST GEORGES SUR LOIRE,47.401,-0.756,0.989,GPLc
1512,BéZIERS,43.355531133559005,3.2394799140262998,1.85,SP98
1513,Saint-Flour,45.0335463,3.093154,1.949,SP98
1514,Saint-Gilles,48.1648935963,-1.86619891216,1.109,E85
1515,Sarre-Union,48.93985938,7.085964590000001,1.889,SP98
1516,POITIERS,46.56141,0.31494,1.757,Gazole
1517,Saint-Jean-de-Moirans,45.348,5.597,1.952,SP98
1518,Magland,46.015007149999995,6.62468959,1.068,E85
1519,PUTEAUX,48.88,2.245,2.049,E10
1520,Tracy-sur-Loire,47.3373,2.92728,2.189,SP98
1521,Le Cannet,43.581,7.007,2.052,SP98
1522,VILLEJUIF,48.785417567889,2.366599755323,1.907,E10
1523,PAMPELONNE,44.081,2.235,1.819,Gazole
1524,Champigny-sur-Marne,48.823,2.494,1.049,GPLc
1525,Saint-Étienne-de-Tulmont,44.049,1.463,1.909,SP98
1526,Boulogne-sur-Gesse,43.28438,0.66086,1.869,E10
1527,Saverdun,43.253,1.565,1.859,E10
1528,PRISSé,46.328,4.742,1.799,Gazole
1529,MENTON,43.78,7.482,1.119,E85
1530,Saint-Vallier-de-Thiey,43.698,6.841,1.119,E85
1531,SAINT-LAURENT-MéDOC,45.152,-0.81,1.894,SP95
1532,COLOMBIERS,43.312,3.141,1.26,E85
1533,BORDEAUX,44.835,-0.599,1.839,E10
1534,Les Pavillons-sous-Bois,48.9104270577,2.51041120111,1.929,Gazole
1535,DIJON,47.358,5.048,1.837,E10
1536,Eauze,43.86386,0.10749,1.089,E85
1537,CAZOULS-LèS-BéZIERS,43.387,3.11,1.859,SP95
1538,AMILLY,47.99,2.77,1.759,Gazole
1539,MIRECOURT,48.3073572629,6.13367188605,1.989,SP98
1540,Biviers,45.24,5.814,1.168,E85
1541,CHAMBOURCY,48.91,2.033,1.96,SP98
1542,Pagny-sur-Moselle,48.978,6.027,1.879,SP95
1543,MENUCOURT,49.02938,1.99173,1.86,Gazole
1544,Freyming-Merlebach,49.13666261126001,6.807734166752501,1.972,SP98
1545,Clisson,47.099,-1.282,1.858,SP95
1546,TOUCY,47.732,3.31,1.159,E85
1547,LE LONGERON,47.023,-1.056,2.01,SP95
1548,Villeneuve-lès-Avignon,43.958,4.778,1.943,SP98
1549,LANVALLAY,48.453,-2.02,1.778,Gazole
1550,MOISSELLES,49.041177467467996,2.3422049553388,1.849,E10
1551,Bouloc,43.784,1.402,1.799,Gazole
1552,MORNANT,45.615212069481,4.7046695067427,1.229,E85
1553,JANVRY,48.636809050000004,2.1475289600000003,2.034,Gazole
1554,BAZAS,44.439,-0.229,1.778,Gazole
1555,Châteauvillain,48.056,4.957,1.034,GPLc
1556,SAULIEU,47.282,4.237,1.939,SP95
1557,SAINT-SEVER-CALVADOS,48.84,-1.052,1.969,SP95
1558,Ploërmel,47.931,-2.381,1.879,SP95
1559,ste cécile les vignes,44.232,4.883,1.804,Gazole
1560,SAINT-QUENTIN,49.84785,3.30117,1.899,SP95
1561,Montendre,45.281,-0.394,1.948,E10
1562,BRESSUIRE,46.846,-0.483,1.739,Gazole
1563,BRESSUIRE,46.846,-0.483,1.829,E10
1564,Varennes-Saint-Sauveur,46.482,5.243,1.839,Gazole
1565,SAINT-LéGER-SUR-DHEUNE,46.849,4.631,1.929,SP95
1566,CRAN-GEVRIER,45.892,6.092,1.789,Gazole
1567,Limoges,45.826969157848005,1.2588429645568,1.861,Gazole
1568,LA FERTé-ALAIS,48.485,2.345,1.969,SP95
1569,Saint-Just-d'Ardèche,44.305,4.612,1.929,SP95
1570,MIREPOIX,43.08856,1.86719,1.89,Gazole
1571,Saint-Jean-de-Monts,46.795677436793994,-2.0494800138474,1.799,E10
1572,Orchies,50.47073,3.24699,1.059,E85
1573,FOIX,42.945742840922996,1.6260957421248,1.952,SP98
1574,Dole,47.10875,5.50677,1.099,E85
1575,Bollwiller,47.866,7.256,1.79,Gazole
1576,Saint-Loup,45.8802707838,4.47246388916,1.898,SP95
1577,Montarnaud,43.6427954,3.69559828,1.089,E85
1578,AUCH,43.664,0.618,1.969,SP98
1579,Lannion,48.74768,-3.45904,1.099,GPLc
1580,TARARE,45.891,4.446,1.856,E10
1581,BALBIGNY,45.8102,4.19681,1.785,Gazole
1582,VOISINS LE BRETONNEUX,48.762342564781996,2.042312091291,1.059,GPLc
1583,LA CHAUSSéE-SAINT-VICTOR,47.611,1.359,1.884,SP95
1584,HOYMILLE,50.97275,2.43675,1.922,SP98
1585,Saint-Julien-Mont-Denis,45.245935454489,6.4243876383603,2.029,Gazole
1586,Chaniers,45.745,-0.562,,
1587,BOUGUENAIS,47.185500517600005,-1.60159114752,1.949,SP98
1588,Ancy-le-Franc,47.770049699999994,4.1751281,1.995,SP95
1589,Ussel,45.54275,2.29749,1.884,SP95
1590,VIVONNE,46.377,0.211,2.079,SP98
1591,ROSHEIM,48.503,7.487,1.819,Gazole
1592,BEGROLLES EN MAUGES,47.132,-0.943,2.049,SP95
1593,NOUZONVILLE,49.81889,4.74094,1.925,SP95
1594,Dunkerque,51.023309839673,2.3400536206785,1.908,SP98
1595,LYON,45.7544602,4.8528365475131,0.989,GPLc
1596,Bourneville SAINT CROIX,49.39,0.612,1.948,E10
1597,Miramont-de-Guyenne,44.6,0.359,2.059,SP95
1598,Brienne-le-Château,48.399,4.518,1.792,Gazole
1599,Bagnoles de l'Orne Normandie,48.55008159164,-0.40233352127749,1.768,Gazole
1600,MARIGNY,49.09916,-1.24241,1.885,SP95
1601,MARIGNY,49.09916,-1.24241,1.935,SP98
1602,DESVRES,50.669,1.838,1.859,E10
1603,Savigny-sur-Braye,47.881,0.808,1.789,Gazole
1604,VENTABREN,43.544,5.296,1.855,E10
1605,Cannes,43.56904,6.96641,1.747,Gazole
1606,LA GARDE,43.1431674533,6.037496672620001,1.852,SP95
1607,PLOUHARNEL,47.59785,-3.11074,2.05,SP98
1608,Gap,44.567,6.102,1.86,SP98
1609,SABLé-SUR-SARTHE,47.838,-0.3,0.929,GPLc
1610,CALVI,42.55461139775301,8.7615155767799,1.926,Gazole
1611,HAZEBROUCK,50.73122,2.54372,1.878,Gazole
1612,saint germain,47.724,6.534,1.858,E10
1613,Pau,43.304772276464,-0.32975314112009996,1.919,SP95
1614,Pau,43.304772276464,-0.32975314112009996,1.969,SP98
1615,DIEPPE,49.91,1.077,1.832,E10
1616,ANTIBES,43.589,7.12,1.139,E85
1617,MARMANDE,44.5120814449,0.135106386789,1.19,E85
1618,ÉGREVILLE,48.177,2.872,1.899,SP95
1619,SALINS FONTAINE,45.466096289751,6.526213528983299,1.849,E10
1620,SISTERON,44.192,5.945,1.916,SP98
1621,PERRIGNIER,46.3038599879,6.43658171728,2.09,SP95
1622,Formerie,49.652,1.728,1.95,SP95
1623,Propriano,41.672,8.909,1.98,SP95
1624,Beauvois-en-Cambrésis,50.138,3.395,2.062,SP98
1625,LE CHAMBON-FEUGEROLLES,45.397,4.324,1.999,SP98
1626,NOISY-LE-ROI,48.842,2.068,1.982,SP98
1627,Ris-Orangis,48.657,2.407,1.976,SP98
1628,Saint-Laurent-du-Var,43.686012971315996,7.1871525112118,2.093,SP98
1629,Theillay,47.314,2.042,2.164,SP98
1630,CONTREXéVILLE,48.189,5.902,1.099,E85
1631,verclause,44.37894577708501,5.4260145606024,1.789,Gazole
1632,Cornebarrieu,43.649,1.337,1.915,SP98
1633,GIF-SUR-YVETTE,48.694,2.121,1.879,E10
1634,CAUDRY,50.129,3.426,1.824,E10
1635,VERGEZE,43.742,4.221,1.812,E10
1636,CEYZERIAT,46.203558237726995,5.2958828488323,2.069,E10
1637,MARTRES-TOLOSANE,43.19845,1.00901,1.099,GPLc
1638,MARTRES-TOLOSANE,43.19845,1.00901,1.859,E10
1639,Le Crès,43.639,3.932,1.745,Gazole
1640,LA TESTE-DE-BUCH,44.618,-1.123,1.842,E10
1641,La Ferté-Saint-Aubin,47.718,1.941,1.856,E10
1642,COURSAN,43.23,3.051,1.92,SP95
1643,Duttlenheim,48.538953600000006,7.5804767,1.249,E85
1644,Duttlenheim,48.538953600000006,7.5804767,1.958,E10
1645,Sarrola-Carcopino,41.979620445373996,8.83383448204,1.935,SP95
1646,Laguenne,45.24621,1.77323,1.799,Gazole
1647,AMBERIEU-EN-BUGEY,45.94,5.377,1.99,Gazole
1648,Vazerac,44.19,1.285,1.959,SP98
1649,LANGUEUX,48.496,-2.728,1.109,E85
1650,Nancy,48.682,6.198,0.92,GPLc
1651,AUCHY-LES-MINES,50.51,2.784,1.747,Gazole
1652,Châtillon-sur-Indre,46.987,1.169,1.869,E10
1653,REMOLLON,44.468,6.179,,
1654,SAINTE-SIGOLèNE,45.24806,4.24106,1.199,E85
1655,BOISSERON,43.756967422129996,4.0843373936706,1.94,SP98
1656,MONTéVRAIN,48.877,2.751,1.919,SP98
1657,LANNEMEZAN,43.098,0.399,1.849,Gazole
1658,Castres,43.589,2.186,1.916,SP98
1659,Châteauneuf-sur-Loire,47.876,2.23,1.775,Gazole
1660,Saint-Laurent-d'Oingt,45.944,4.566,1.929,Gazole
1661,La Charité-sur-Loire,47.193,3.014,1.899,SP95
1662,CHâLETTE-SUR-LOING,48.00717,2.72287,1.759,Gazole
1663,BASTIA,42.677,9.444,1.25,GPLc
1664,THUIR,42.631,2.762,1.877,E10
1665,CAEN,49.186,-0.381,1.892,SP95
1666,LES ACHARDS,46.607,-1.664,1.722,Gazole
1667,GRADIGNAN,44.777,-0.61,1.822,E10
1668,TRUCHTERSHEIM,48.657,7.605,1.929,SP98
1669,Bains-les-Bains,48.00589819,6.27536315,1.938,SP98
1670,CARCASSONNE,43.215,2.345,1.32,E85
1671,GASSIN,43.263,6.583,1.869,Gazole
1672,PLOUHA,48.691,-2.933,1.82,Gazole
1673,diemoz,45.597,5.095,1.88,E10
1674,TASSIN LA DEMI LUNE,45.766,4.784,1.949,SP95
1675,TASSIN LA DEMI LUNE,45.766,4.784,1.979,SP98
1676,BORDEAUX,44.837,-0.599,1.129,E85
1677,FONTENAY-LE-COMTE,46.452,-0.806,1.889,SP98
1678,HAUCONCOURT,49.214,6.17,0.969,GPLc
1679,HAUCONCOURT,49.214,6.17,1.829,E10
1680,Écot,47.441037997848994,6.7291635015748,1.295,E85
1681,LE VAL-SAINT-PèRE,48.673,-1.355,1.884,Gazole
1682,Château-Arnoux-Saint-Auban,44.088,6.009,0.999,GPLc
1683,GIGNAC,43.651,3.547,1.874,SP98
1684,Menthon-Saint-Bernard,45.866,6.188,1.99,Gazole
1685,Menthon-Saint-Bernard,45.866,6.188,2.11,SP98
1686,Embrun,44.551,6.489,1.791,Gazole
1687,Grans,43.601650511466005,5.0746754516205,0.799,E10
1688,BLOIS,47.588,1.313,2.078,SP98
1689,TRéBEURDEN,48.77,-3.571,1.929,SP98
1690,Buironfosse,49.960603600000006,3.8238007,1.899,Gazole
1691,BLETTERANS,46.746,5.457,2.056,SP98
1692,Saint-Philbert-sur-Risle,49.29473,0.65939,1.749,Gazole
1693,LIEUREY,49.225,0.497,1.929,SP95
1694,LéGUEVIN,43.602,1.262,1.849,E10
1695,PAGNY SUR MEUSE,48.686,5.726,0.914,GPLc
1696,VILLEFRANCHE-DE-ROUERGUE,44.359,1.997,1.819,E10
1697,Maromme,49.482,1.04,1.889,SP98
1698,Dommartin-lès-Cuiseaux,46.496128600000006,5.3116591,2.229,SP98
1699,Ormesson-sur-Marne,48.793,2.554,1.783,Gazole
1700,LES MARTRES-DE-VEYRE,45.683,3.188,1.943,SP98
1701,Crépy-en-Valois,49.224659428094,2.9054913758613,1.809,Gazole
1702,CARNOULES,43.299,6.191,1.899,SP98
1703,Saint-Germain-des-Fossés,46.205,3.432,1.869,E10
1704,CLERMONT-FERRAND,45.78049,3.13629,1.909,SP95
1705,TOURS,47.425,0.674,1.079,E85
1706,ABBEVILLE,50.10376,1.82805,1.889,SP95
1707,CREIL,49.251,2.476,0.999,GPLc
1708,SONCHAMP,48.568,1.833,1.917,E10
1709,CORBEIL,48.608,2.449,1.149,E85
1710,PARAY-LE-MONIAL,46.446,4.12,2.059,SP98
1711,DANGE-SAINT-ROMAIN,46.93511,0.60576,1.899,SP95
1712,Roquebrune-sur-Argens,43.461,6.639,1.879,E10
1713,TRIGNAC,47.312,-2.2,1.979,E10
1714,LE VERSOUD,45.212,5.857,2.029,SP98
1715,BRIANCON,44.903718328593996,6.6290858578086,1.129,E85
1716,MOULINS-LèS-METZ,49.0831628715,6.10967138774,1.839,Gazole
1717,PAU,43.32,-0.351,1.839,Gazole
1718,Argentan,48.737,-0.031,1.873,SP95
1719,Déville-lès-Rouen,49.471,1.043,1.94,SP98
1720,Le Mas-d'Agenais,44.40495,0.18765,1.948,Gazole
1721,Jonzac,45.4382966,-0.4515224,1.729,Gazole
1722,MORAINVILLIERS,48.940636390951,1.9546125318413001,1.259,E85
1723,AVRILLé,47.5173224504,-0.608072819189,1.779,Gazole
1724,Wingen-sur-Moder,48.92,7.375,1.892,SP95
1725,ALBERT,49.994,2.657,1.889,SP98
1726,LA GRAND-COMBE,44.211,4.032,1.099,E85
1727,La Tour-du-Pin,45.56,5.453,2.036,SP98
1728,Maulévrier,47.01,-0.756,1.719,Gazole
1729,Avelin,50.540364491489,3.0737464096402,1.792,Gazole
1730,CASTETS,43.869941219434004,-1.1338228489867999,1.784,Gazole
1731,Audincourt,47.48631,6.84373,1.867,SP98
1732,Guerlesquin,48.514,-3.588,1.9,SP95
1733,Messas,47.819107954506,1.6414407471436,2.009,SP98
1734,Aoste,45.592,5.609,1.099,GPLc
1735,VERDUN-SUR-GARONNE,43.854,1.228,1.939,SP98
1736,Vienne,45.542,4.852,1.939,SP98
1737,SEPTEUIL,48.892164616577,1.6783590679534999,2.04,SP98
1738,LAGNIEU,45.902,5.346,1.779,Gazole
1739,Saint-Macaire-en-Mauges,47.121,-0.984,1.908,E10
1740,ROUEN,49.449,1.067,1.769,Gazole
1741,DAX,43.717,-1.051,1.844,E10
1742,ORBEC,49.024,0.413,1.19,E85
1743,La Chapelle-sur-Erdre,47.302,-1.548,1.759,Gazole
1744,PUILBOREAU,46.177,-1.103,1.806,E10
1745,EVREUX,49.021,1.138,1.763,Gazole
1746,Malafretaz,46.323,5.137,1.879,Gazole
1747,Malafretaz,46.323,5.137,2.036,SP98
1748,FRONTENEX,45.633,6.312,1.919,SP98
1749,PONT-AUDEMER,49.347,0.523,1.08,GPLc
1750,Saint-Benin-d'Azy,47.005,3.398,1.863,E10
1751,LA QUEUE-EN-BRIE,48.789,2.576,1.803,Gazole
1752,GLANON,47.032,5.106,2.189,SP98
1753,EYRANS,45.19,-0.619,1.952,E10
1754,VALENCIENNES,50.36907,3.53197,1.916,SP98
1755,VICHY,46.131,3.434,1.893,Gazole
1756,Mercurey,46.836,4.718,1.899,Gazole
1757,Sierentz,47.664,7.445,1.034,E85
1758,LUNéVILLE,48.59664,6.47738,1.962,E10
1759,HARLY,49.84272807,3.32345007,1.832,E10
1760,VESOUL,47.633,6.159,2.056,SP98
1761,Saint-Max,48.702,6.214,2.0,SP98
1762,FOURMIES,50.018,4.053,1.925,SP98
1763,VERNEUIL-SUR-SEINE,48.986,1.968,1.875,E10
1764,Salon-de-Provence,43.640015836500005,5.04828841954,1.8,E10
1765,PIANOTTOLI-CALDARELLO,41.491825740818,9.055204657531599,1.95,Gazole
1766,Doyet,46.35591,2.8003,2.079,E10
1767,Cérilly,46.61658854,2.82206505,1.939,SP95
1768,Saint-Denis-les-Ponts,48.06712,1.30218,1.763,Gazole
1769,Saint-Denis-les-Ponts,48.06712,1.30218,1.799,E10
1770,MILLAU,44.107,3.081,1.85,E10
1771,SALEILLES,42.658,2.952,2.054,SP98
1772,BEUVRY,50.523,2.681,1.869,Gazole
1773,Ambon,47.56016876,-2.50584059,1.89,SP95
1774,Saint-Laurent-de-la-Salanque,42.773,3.011,1.891,Gazole
1775,VOLX,43.842885752117,5.851421022464799,2.084,E10
1776,BOISSISE-LA-BERTRAND,48.54,2.612,1.809,Gazole
1777,BOISSISE-LA-BERTRAND,48.54,2.612,1.119,E85
1778,SALIES-DE-BéARN,43.475,-0.913,2.047,SP98
1779,Guignicourt,49.44872,3.92652,2.084,SP98
1780,Aiguebelle,45.543,6.303,1.899,SP95
1781,Chennevières-sur-Marne,48.80464,2.53525,1.92,Gazole
1782,Saint-Denis-lès-Sens,48.216605760092996,3.2771067499518,1.859,E10
1783,Barcelonnette,44.386,6.645,1.972,SP95
1784,Groléjac,44.820868467717006,1.2905781261784,1.129,E85
1785,Cahors,44.469,1.43,1.79,Gazole
1786,Beausoleil,43.744768107496,7.4266167809815995,1.942,Gazole
1787,Candé,47.56817,-1.03284,1.909,SP98
1788,PASSY,45.91878,6.70405,1.894,SP95
1789,Bray-sur-Somme,49.938493468872004,2.7181883865082,1.749,E10
1790,Juvincourt-et-Damary,49.445084070022006,3.9276187076699,1.094,GPLc
1791,LYON,45.779,4.828,1.899,Gazole
1792,Sens,48.203875189763004,3.271306496774,1.099,E85
1793,Cannes,43.54738,7.04418,2.05,SP95
1794,Ajaccio,41.93484,8.74775,1.955,SP95
1795,SAINT-PRIEST,45.693695659999996,4.94000494,1.889,SP98
1796,Cannes,43.547,7.046,1.807,Gazole
1797,GRAND-COURONNE,49.3642,1.01147,1.813,E10
1798,PLOMODIERN,48.181,-4.23,1.868,SP95
1799,LOISIN,46.271,6.314,1.799,Gazole
1800,LOISIN,46.271,6.314,1.069,E85
1801,LES ESSARTS LE ROI,48.717570147636,1.8828914484381998,1.847,Gazole
1802,CEIGNES,46.118095624940004,5.491106279529101,2.189,SP98
1803,L'ISLE-SUR-LA-SORGUE,43.931,5.064,0.989,GPLc
1804,ÉCHIROLLES,45.159,5.724,1.818,SP95
1805,NEGREPELISSE,44.077,1.571,1.979,SP98
1806,SIGEAN,43.031,2.965,1.939,SP98
1807,EYGLIERS,44.672,6.618,1.899,SP95
1808,Allos,44.26338,6.64132,2.04,SP95
1809,Saint-Pourçain-sur-Sioule,46.298,3.296,1.849,E10
1810,ARZENS,43.221,2.206,1.33,E85
1811,Brive-la-Gaillarde,45.16671,1.5459,1.934,SP98
1812,Grasse,43.648,6.915,1.889,E10
1813,Mareil sur Mauldre,48.8932373,1.8738757000000001,1.887,E10
1814,MARSEILLE,43.3694597399,5.35637794519,1.999,SP98
1815,LEUCATE,42.9064295874,3.03680630734,1.795,Gazole
1816,NOVES,43.87688,4.90072,1.912,E10
1817,Ferrette,47.499545499999996,7.307269,1.838,Gazole
1818,TOURGEVILLE,49.35124,0.0573,1.928,E10
1819,Mathieu,49.242,-0.372,1.922,SP98
1820,Marennes,45.82747,-1.09838,1.759,Gazole
1821,MARSEILLE,43.343,5.422,1.775,Gazole
1822,DIJON,47.3626,5.04681,2.052,SP98
1823,DIJON,47.3224,5.0188,1.169,E85
1824,DIJON,47.30728,5.05757,1.926,E10
1825,Lamballe,48.46827,-2.5391,,
1826,SAINT-LANGIS-LèS-MORTAGNE,48.532,0.513,1.922,E10
1827,Saint-Cyprien,42.6355120543,3.03407473298,1.873,E10
1828,Pont-Saint-Esprit,44.258,4.649,2.01,SP98
1829,Balma,43.609,1.489,1.13,E85
1830,Toulouse,43.566,1.459,1.852,E10
1831,COLOMIERS,43.608,1.336,1.943,SP98
1832,Blagnac,43.627,1.398,1.932,SP98
1833,DOURDAN,48.528,2.023,1.899,SP98
1834,BEZIERS,43.358,3.243,1.999,SP98
1835,BEZIERS,43.354260237735,3.2291535224152,1.785,Gazole
1836,BEZIERS,43.346448175582,3.2412510394399003,1.851,E10
1837,Salles-d'Aude,43.23898,3.11168,1.789,Gazole
1838,Pithiviers-le-Vieil,48.17132,2.23559,1.099,E85
1839,Moirans,45.327,5.576,1.854,E10
1840,Moirans,45.327,5.576,1.934,SP98
1841,Saugues,44.96938,3.54097,1.919,SP95
1842,BESANçON,47.231,5.994,1.799,E10
1843,Saint-Jean-de-la-Ruelle,47.910085681072,1.8814197597764,1.955,SP98
1844,BAUGé,47.53837,-0.10628,1.965,SP98
1845,REIMS,49.228,4.038,1.866,E10
1846,MAYENNE,48.314,-0.639,1.84,E10
1847,COLOMBEY-LES-BELLES,48.52333,5.89412,2.08,SP95
1848,Metz,49.106,6.179,1.881,E10
1849,Metz,49.106,6.209,1.961,SP98
1850,RICHEVAL,48.645970110099995,6.920341983359999,,
1851,Roubaix,50.694,3.183,1.864,E10
1852,PHALEMPIN,50.5201295077,3.02089048044,,
1853,Anglet,43.49346,-1.51826,1.88,SP95
1854,SAINT-QUENTIN,49.8536640026,3.26295970618,1.85,E10
1855,Lambres-lez-Douai,50.34674,3.09041,,
1856,WANCOURT,50.261,2.864,2.049,E10
1857,BAPAUME,50.115531355499996,2.85085855867,1.949,SP98
1858,Saint-Omer,50.744,2.26,1.828,E10
1859,La Châtaigneraie,46.646,-0.747,1.908,SP98
1860,BILLERE,43.305882255669005,-0.40287475687442,1.035,GPLc
1861,MAZEROLLES,43.436444,-0.4664254,2.092,SP98
1862,WOLFISHEIM,48.600997836937,7.6522720918629,1.918,SP98
1863,Wittenheim,47.806,7.337,1.839,E10
1864,Décines-Charpieu,45.772,4.97,1.121,E85
1865,Craponne,45.747,4.741,1.809,Gazole
1866,Saint-Symphorien-sur-Coise,45.63046,4.45638,1.59,SP95
1867,Saint-Priest,45.7184281,4.9528496,1.823,E10
1868,MAISONS-ALFORT,48.80694774210001,2.43827166369,1.959,Gazole
1869,Villersexel,47.54533,6.42992,1.859,E10
1870,Chalon-sur-Saône,46.782,4.847,1.929,SP98
1871,LIMONEST,45.843,4.77,1.945,Gazole
1872,AUBAGNE,43.2840939903,5.5440439248899995,1.752,Gazole
1873,ANNECY,45.90803,6.11613,1.812,Gazole
1874,ANNECY,45.90803,6.11613,1.179,E85
1875,Viviers,44.475896399999996,4.692095800000001,1.849,E10
1876,PARIS 13,48.82586,2.38433,1.957,Gazole
1877,Rouen,49.45,1.049,1.842,E10
1878,Paris,48.871,2.409,1.969,Gazole
1879,Grand-Couronne,49.354,1.03,1.763,Gazole
1880,Le Havre,49.494,0.097,1.892,Gazole
1881,Versailles,48.791,2.114,2.019,SP98
1882,Trappes,48.77,1.984,2.009,E10
1883,Le Pecq,48.881,2.097,1.199,E85
1884,Toulon,43.13945251,5.88654834,1.889,E10
1885,LA VALETTE-DU-VAR,43.143,6.011,1.914,E10
1886,Roumazières-Loubert,45.88434,0.57522,1.119,E85
1887,MAZAN,44.05877,5.11102,1.998,SP95
1888,Champigny-sur-Marne,48.828,2.513,1.149,E85
1889,Argenteuil,48.945,2.263,1.989,Gazole
1890,APPOIGNY,47.880831238847,3.5285674508727,2.014,SP98
1891,Étampes,48.40881,2.12543,1.907,E10
1892,DRAVEIL,48.676,2.411,2.079,SP98
1893,LUBERSAC,45.438,1.397,1.905,SP95
1894,Bazouges-la-Pérouse,48.425,-1.571,1.89,SP95
1895,VALDOIE,47.66862601099999,6.842203087160001,1.888,SP95
1896,Martigné-Briand,47.23,-0.438,2.04,Gazole
1897,RISCLE,43.656,-0.074,1.799,Gazole
1898,REIMS,49.23929,4.04547,1.129,E85
1899,SAINT-ÉTIENNE-DE-SAINT-GEOIRS,45.354,5.334,1.799,Gazole
1900,MONISTROL-SUR-LOIRE,45.285,4.158,1.779,Gazole
1901,STRASBOURG,48.591,7.694,1.829,E10
1902,Neuville-aux-Bois,48.081371829934,2.0490395665762002,2.13,SP98
1903,URCUIT,43.487,-1.358,1.79,Gazole
1904,MONTESSON,48.909,2.159,1.965,SP98
1905,saint aulaye puymangou,45.168,0.081,1.895,Gazole
1906,CARANTEC,48.66,-3.919,1.893,SP95
1907,Sancey-le-Long,47.306,6.601,1.979,SP98
1908,Saint-Chamond,45.47933,4.51918,1.927,SP98
1909,CASTELNAU-MAGNOAC,43.293,0.515,1.835,Gazole
1910,LANVOLLON,48.633,-2.979,1.819,E10
1911,Caveirac,43.821,4.261,1.839,E10
1912,VINON-SUR-VERDON,43.728,5.813,1.789,E10
1913,Minihy-Tréguier,48.7793,-3.24469,1.927,SP98
1914,Templeuve,50.517,3.208,1.948,E10
1915,MUGRON,43.746086876999996,-0.758021592231,1.939,SP98
1916,Grandvilliers,49.666,1.959,1.778,Gazole
1917,CLAIRVAUX-LES-LACS,46.577,5.754,2.056,SP98
1918,PESMES,47.279365068164005,5.56670857627,1.888,SP95
1919,CLAMART,48.812,2.271,2.139,SP98
1920,Bessines-sur-Gartempe,46.13182,1.37253,1.879,SP95
1921,VILLENEUVE-SUR-LOT,44.396272507800006,0.7067526424420001,1.849,E10
1922,Sin-le-Noble,50.368022611034995,3.120128517168,1.919,SP98
1923,CHALONNES-SUR-LOIRE,47.348,-0.761,1.099,E85
1924,CHALONNES-SUR-LOIRE,47.348,-0.761,1.819,E10
1925,Herlin-le-Sec,50.364,2.331,1.089,E85
1926,Herlin-le-Sec,50.364,2.331,1.89,SP98
1927,BURNHAUPT LE BAS,47.716,7.138,2.078,SP98
1928,Jardres,46.567,0.564,1.849,SP95
1929,Veyre-Monton,45.661,3.153,2.179,SP98
1930,Bandol,43.154,5.744,1.729,Gazole
1931,Rabastens,43.82975,1.74016,1.779,Gazole
1932,Chagny,46.921,4.748,1.879,E10
1933,RIORGES,46.043,4.053,1.939,SP98
1934,Arbois,46.911,5.77,1.959,SP98
1935,Saint-Loup-Géanges,46.948,4.909,1.92,SP98
1936,VENOY,47.78765,3.67211,2.019,Gazole
1937,VENOY,47.78765,3.67211,1.249,E85
1938,MANOSQUE,43.822612176294,5.7872085229392,0.959,GPLc
1939,MANOSQUE,43.822612176294,5.7872085229392,1.815,E10
1940,LA GUERCHE SUR L AUBOIS,46.951,2.949,1.935,SP98
1941,GENNEVILLIERS,48.921,2.295,2.109,SP98
1942,Croissy-Beaubourg,48.828,2.644,1.817,Gazole
1943,TOURCOING,50.737,3.169,1.888,Gazole
1944,Ballainvilliers,48.669209341122,2.2798807196018998,2.019,E10
1945,Pont-de-Salars,44.289,2.714,1.989,SP95
1946,PEYMEINADE,43.644,6.883,2.042,SP98
1947,VANNES,47.6691722685,-2.80336454446,1.882,Gazole
1948,La Roquette-sur-Siagne,43.576,6.951,1.989,SP98
1949,Saintes,45.73933,-0.60291,1.916,SP98
1950,LE PUY EN VELAY,45.0479250728,3.89342284693,1.772,Gazole
1951,LE PUY EN VELAY,45.0479250728,3.89342284693,1.941,SP98
1952,Lussan,44.151,4.362,1.94,SP95
1953,Mussy-sur-Seine,47.983,4.496,1.899,Gazole
1954,Saint-Pierre-la-Mer,43.172,3.181,2.055,SP95
1955,Chevanceaux,45.2935182,-0.23916880000000001,1.83,Gazole
1956,La Turbie,43.755,7.398,1.978,E10
1957,CERGY,49.053,2.038,1.979,E10
1958,MORTAGNE-SUR-SèVRE,46.994,-0.949,1.719,Gazole
1959,MORTAGNE-SUR-SèVRE,46.994,-0.949,1.799,E10
1960,Montbeton,44.012,1.287,1.19,E85
1961,VOREY,45.182,3.915,1.799,Gazole
1962,LYON 5EME,45.754,4.777,1.969,SP98
1963,Rosporden,47.965,-3.852,1.879,SP95
1964,VALENSOLE,43.836,5.977,1.799,Gazole
1965,ARZENS,43.221,2.202,2.076,SP98
1966,Prayssac,44.5007,1.19465,1.988,SP98
1967,le guilvinec,47.805044361175,-4.2805936428444,1.899,SP95
1968,Clux villeneuve,46.963541337289,5.1742584054015,1.829,E10
1969,MANZAT,45.9629287,2.9490673,2.039,E10
1970,Saint-Girons,42.97935,1.1445,1.797,Gazole
1971,KESKASTEL,48.974919061939,7.0642799047828,2.032,Gazole
1972,PARIS,48.88384,2.38977,2.135,SP98
1973,ROUEN,49.435,1.105,1.171,E85
1974,LE PIN,48.91061,2.62339,1.829,Gazole
1975,Longueil-Sainte-Marie,49.359,2.718,1.799,Gazole
1976,Romillé,48.217,-1.886,1.93,SP98
1977,Roanne,46.041,4.055,1.863,Gazole
1978,LA CROIX SAINT OUEN,49.358,2.777,1.849,E10
1979,GIVET,50.133702402065,4.853726189936,1.905,E10
1980,BIGANOS,44.63788,-0.96174,1.03,E85
1981,Rives de l'Yon,46.582,-1.375,1.93,Gazole
1982,Sainte-Hermine,46.573350482882,-1.1168592076897998,1.96,Gazole
1983,ALLAIRE,47.63633,-2.16842,1.98,Gazole
1984,AURILLAC,44.914,2.441,1.105,E85
1985,Chauffailles,46.204,4.336,1.915,SP98
1986,SAINT-PIERRE-SUR-DIVES,49.0247,-0.02358,1.928,E10
1987,Furiani,42.657,9.441,1.98,SP95
1988,Le Grau-du-Roi,43.5217,4.1389,1.869,SP95
1989,Valdahon,47.15,6.337,1.895,SP95
1990,Villemomble,48.885,2.507,2.089,SP98
1991,MONTLUçON,46.34,2.582,1.799,Gazole
1992,Châteauneuf-sur-Charente,45.6,-0.055,1.935,SP95
1993,BREZOLLES,48.690021564300004,1.07867353187,1.999,SP98
1994,BRIE-COMTE-ROBERT,48.70075943685,2.600879926279,2.084,SP98
1995,Forcalqueiret,43.33471,6.07989,,
1996,Ferrières,46.2265632575,-0.8715297856259999,1.87,SP95
1997,LILLE,50.634,3.098,1.819,Gazole
1998,LESSAY,49.21231,-1.52758,1.889,SP95
1999,LESSAY,49.21231,-1.52758,1.845,E10
2000,Aubignosc,44.133508652902,5.9775342421699005,1.054,GPLc
2001,Laplume,44.114,0.532,1.839,E10
2002,SEYSSINET,45.1758,5.69701,1.901,SP98
2003,DRAGUIGNAN BROSSOLETTE,43.532,6.451,1.911,SP98
2004,MENNECY,48.565,2.447,1.809,Gazole
2005,SAINT-MARCEL,49.10324,1.45322,1.074,E85
2006,FOSSES,49.10021,2.52395,1.949,Gazole
2007,Cluny,46.428,4.664,1.829,Gazole
2008,FRANCHEVILLE,45.735,4.775,1.816,E10
2009,STAINS,48.9487499536,2.3798807028,1.949,Gazole
2010,Salviac,44.679844320529,1.2609330195636,1.799,Gazole
2011,Plouzané,48.372,-4.589,1.169,E85
2012,ORGELET,46.533,5.605,1.899,SP95
2013,MOYENMOUTIER,48.32778276,6.894765130000001,1.985,SP98
2014,Villemoirieu,45.719915635321996,5.2035202775663,1.799,Gazole
2015,BAZAS,44.433877400700005,-0.21895288266399998,1.833,E10
2016,ARRAS,50.291,2.784,2.047,SP98
2017,Marseille,43.284915999999996,5.437802,1.999,SP98
2018,SAINT-VIT,47.18667,5.82766,1.829,E10
2019,Thérouanne,50.631881500000006,2.2654255,1.149,E85
2020,Susmiou,43.31906,-0.7712,1.099,E85
2021,Villeblevin,48.336,3.08,1.992,SP98
2022,Campagnac,44.417596130231004,3.0884971173364,1.859,Gazole
2023,Montauban,44.003,1.355,1.825,E10
2024,Saint-Médard-de-Mussidan,45.038,0.354,1.863,SP98
2025,Contrexéville,48.188461950599,5.8833742557768,1.799,Gazole
2026,CALLIAN,43.607,6.749,1.849,Gazole
2027,CALLIAN,43.607,6.749,1.919,SP95
2028,Toulouse,43.594,1.489,1.882,SP95
2029,Montrevel-en-Bresse,46.334726399999994,5.1260021,1.775,Gazole
2030,SAINT-GERMAIN-LèS-CORBEIL,48.619,2.494,1.875,Gazole
2031,BAUME-LES-DAMES,47.3499088497,6.34694382569,1.829,E10
2032,SAINT-GERVAIS-D'AUVERGNE,46.0307872738,2.82101927933,1.969,SP98
2033,Magneux-Haute-Rive,45.66958,4.17238,2.265,SP98
2034,Urrugne,43.375,-1.679,1.839,E10
2035,BIRON,43.464,-0.741,,
2036,ISSOUDUN,46.951,2.007,1.765,Gazole
2037,BOULOC,43.781,1.405,2.059,SP98
2038,Iwuy,50.228,3.32,1.969,SP98
2039,LA SELLE-EN-HERMOY,48.018205,2.88525,1.899,Gazole
2040,Saint-Amant-de-Boixe,45.804,0.14,1.879,E10
2041,VAUGNERAY,45.73262,4.67286,1.229,E85
2042,FAUVILLE-EN-CAUX,49.651,0.591,1.949,SP95
2043,Vétraz-Monthoux,46.178,6.242,2.22,Gazole
2044,REIMS,49.2563884,4.0364603,2.069,SP98
2045,MURAT-LE-QUAIRE,45.593,2.75,1.95,SP98
2046,SORGUES,44.027,4.874,1.794,Gazole
2047,RéMILLY,49.017,6.384,1.109,E85
2048,MANTRY,46.808,5.582,1.879,Gazole
2049,Clermont-Ferrand,45.80662,3.10943,1.929,E10
2050,Clermont-Ferrand,45.80662,3.10943,2.039,SP98
2051,AMAGNE,49.51743,4.49483,1.849,Gazole
2052,Peyssies,43.261,1.116,1.929,SP98
2053,COLMAR,48.058,7.334,1.955,SP98
2054,THORIGNE-EN-CHARNIE,48.027015556982995,-0.34336203889620004,1.973,Gazole
2055,ÉVRON,48.15,-0.409,1.877,Gazole
2056,Sévrier,45.84501,6.15048,1.92,SP95
2057,Châlette-sur-Loing,48.0208954,2.737303,1.939,Gazole
2058,Montluçon,46.33362,2.60087,1.899,SP95
2059,Villefranche-sur-Saône,45.989,4.71,1.789,Gazole
2060,RUMILLY,45.856339986284006,5.9484181554018996,0.959,GPLc
2061,Uzerche,45.41736,1.58159,1.848,E10
2062,VOUZIERS,49.405,4.697,1.819,Gazole
2063,Esternay,48.722,3.553,1.869,SP95
2064,PONTORSON,48.56,-1.509,1.799,Gazole
2065,Chanteheux,48.592,6.528,1.919,SP98
2066,La Tour-sur-Orb,43.657,3.15,1.819,Gazole
2067,CHEMILLE,47.235,-0.723,1.119,E85
2068,Rupt-sur-Moselle,47.925,6.659,1.839,Gazole
2069,MAUVEZIN,43.731,0.881,1.859,E10
2070,Chécy,47.902,2.004,1.862,E10
2071,COURTHEZON,44.0797107,4.8788574,1.839,Gazole
2072,Concarneau,47.861,-3.885,2.032,SP98
2073,Saint-Vit,47.187,5.825,1.829,E10
2074,Murat-sur-Vèbre,43.68311647,2.85989826,1.813,Gazole
2075,Cergy,49.0371,2.0756,2.099,SP98
2076,NANTES,47.257,-1.513,0.933,GPLc
2077,Soultz-Haut-Rhin,47.898,7.222,1.911,Gazole
2078,Soultz-Haut-Rhin,47.898,7.222,1.109,E85
2079,VEYNES,44.53627,5.83174,1.129,E85
2080,MENONCOURT,47.688,6.955,1.922,E10
2081,DOMERAT,46.362,2.534,1.83,Gazole
2082,Calais,50.943,1.81,1.885,E10
2083,Chalon-sur-Saône,46.81201,4.85551,1.829,E10
2084,VAL-DE-MEUSE,48.01,5.483,1.859,E10
2085,Remoulins,43.942,4.569,1.899,Gazole
2086,Villard-sur-Doron,45.728,6.533,1.949,SP95
2087,Seissan,43.494,0.594,1.891,E10
2088,HEYRIEUX,45.639,5.044,1.749,Gazole
2089,HEYRIEUX,45.639,5.044,1.099,E85
2090,Sault,44.1015,5.41452,1.099,E85
2091,BROU,48.218,1.178,1.829,E10
2092,DRANCY,48.918,2.418,1.832,Gazole
2093,Auffay,49.718682699999995,1.0956237,1.799,Gazole
2094,Maresché,48.197533,0.16889,1.884,Gazole
2095,Blois,47.61,1.327,1.847,E85
2096,Paris,48.835,2.266,1.189,E85
2097,GRASSE,43.654,6.943,2.022,SP98
2098,Saissac,43.362978379985,2.1613941268092,1.85,SP95
2099,Perrecy-les-Forges,46.615,4.212,1.859,E10
2100,ANGLIERS,46.2129641345,-0.9541196059763399,2.08,SP95
2101,ST ROMAIN LE PUY,45.553883973637,4.1205472294829,1.869,SP95
2102,PLEUMELEUC,48.178,-1.92,1.819,E10
2103,PLEUMELEUC,48.178,-1.92,1.919,SP98
2104,LES HERBIERS,46.904,-1.048,2.039,Gazole
2105,LES HERBIERS,46.904,-1.048,2.099,E10
2106,MENS,44.815,5.751,2.019,SP95
2107,ARQUES,50.736,2.28,1.936,SP95
2108,BUXY,46.716,4.704,1.949,SP98
2109,SERVIAN,43.357,3.34,2.216,SP98
2110,Arthez-de-Béarn,43.476,-0.613,1.969,SP98
2111,LA CHAPELAUDE,46.406002810000004,2.52902817,2.059,SP98
2112,Montbazens,44.461389568937996,2.2223507921239,1.879,Gazole
2113,Bagneux,48.797,2.298,2.169,SP98
2114,PAMIERS,43.103,1.631,1.119,E85
2115,ALèS,44.1113787899,4.09637855867,1.919,SP98
2116,Cholet,47.075,-0.843,1.854,E10
2117,VANNES,47.639,-2.776,1.765,Gazole
2118,DIEPPE,49.919,1.086,1.877,SP95
2119,Beauvoisin,43.726,4.33,1.949,SP98
2120,Chantonnay,46.7,-1.051,1.719,Gazole
2121,MONT-SAINT-AIGNAN,49.472,1.094,1.815,E10
2122,Marcoussis,48.64065,2.24877,1.817,Gazole
2123,Puy-l'Évêque,44.501,1.143,1.809,Gazole
2124,Castelnaudary,43.315,1.96,1.929,SP95
2125,ROMORANTIN-LANTHENAY,47.35831,1.74453,1.919,SP95
2126,Saint-Aulaire,45.23073,1.37255,1.833,Gazole
2127,Saint-Estève,42.716,2.844,1.88,Gazole
2128,AMANCEY,47.03835,6.06985,2.04,SP98
2129,Praz-sur-Arly,45.83991,6.57942,1.949,E10
2130,VINCENNES,48.845,2.433,2.099,SP95
2131,CLAIRA,42.777,2.951,1.899,E10
2132,Étang-sur-Arroux,46.866,4.19,1.889,SP95
2133,Béguey,44.644340976895,-0.32242462921154,1.84,E10
2134,CHAMBRAY-LèS-TOURS,47.337,0.698,1.844,E10
2135,RENAZE,47.79260231,-1.0671957399999998,1.807,E10
2136,Saint-Georges-de-Mons,45.939570999999994,2.837118,1.939,SP98
2137,Bernières-sur-Mer,49.334,-0.413,1.835,Gazole
2138,Bernières-sur-Mer,49.334,-0.413,1.91,SP98
2139,Pertuis,43.679,5.497,1.855,SP95
2140,La Chapelle-sur-Erdre,47.256759,-1.546015,1.804,E10
2141,La Chapelle-sur-Erdre,47.256759,-1.546015,1.924,SP98
2142,LE BOULOU,42.532,2.84,1.767,Gazole
2143,La Mure,44.913,5.798,1.897,SP98
2144,Saintes,45.741008800341,-0.62603359222409,1.069,E85
2145,QUILLAN,42.878,2.186,1.969,E10
2146,AJACCIO,41.9427905963,8.752502765600001,1.956,SP95
2147,Joué-lès-Tours,47.321847755774,0.6631695557563201,1.812,E10
2148,TULLINS,45.296563269475,5.5017495250702995,1.999,SP98
2149,Sucy-en-Brie,48.777,2.511,1.934,E10
2150,Lavans-lès-Saint-Claude,46.381,5.778,1.939,SP95
2151,LE BOUSCAT,44.861,-0.588,2.009,SP98
2152,VILLENEUVE-SUR-LOT,44.458,0.695,1.999,SP98
2153,BLAIN,47.476,-1.75,1.779,E10
2154,CARCASSONNE,43.236,2.369,1.329,E85
2155,LA ROCHETTE,45.456,6.112,1.869,E10
2156,Baud,47.882,-3.018,1.863,SP95
2157,POILLY-LEZ-GIEN,47.678,2.594,1.829,Gazole
2158,LA MOTTE-SERVOLEX,45.60217,5.87546,1.805,E10
2159,MONTFERMEIL,48.899,2.549,1.83,Gazole
2160,Saint-Hippolyte-du-Fort,43.95132,3.87348,1.829,E10
2161,Montoire-sur-le-Loir,47.759,0.876,1.915,SP95
2162,CARHAIX-PLOUGUER,48.277,-3.568,1.929,Gazole
2163,CHâTEAU-LANDON,48.14461,2.6942,1.829,Gazole
2164,Saint-Maixant,44.574980414883996,-0.25492902257619,1.959,SP98
2165,VALFRAMBERT,48.456738391763,0.12705878900904,2.049,E10
2166,Lannion,48.75,-3.458,1.799,E10
2167,Brienon-sur-Armançon,47.99,3.606,1.992,Gazole
2168,Les Mages,44.227,4.163,2.015,SP98
2169,Saint-Léonard-de-Noblat,45.861,1.515,2.03,SP95
2170,TARTAS,43.860622025,-0.882638340499,1.869,SP95
2171,Saint-Maixent-l'École,46.418,-0.195,1.814,E10
2172,SOUFFLENHEIM,48.819,7.964,1.879,SP95
2173,HAGUENAU,48.8020275784,7.83530833631,1.859,E10
2174,CHAMBON-LE-CHâTEAU,44.85347,3.66108,1.869,SP95
2175,LE MANS,47.985161574039005,0.18594572421907,0.959,GPLc
2176,HéSINGUE,47.578,7.539,2.0,Gazole
2177,Carros,43.776,7.199,2.12,SP98
2178,LE VIGAN,43.991,3.608,0.95,GPLc
2179,La Palme,42.97984,2.98637,2.174,SP98
2180,LOUVIGNé-DU-DéSERT,48.49,-1.113,1.839,E10
2181,Seebach,48.971675,7.9914648,1.863,SP95
2182,Sartène,41.649,8.945,1.98,SP95
2183,Roques,43.512,1.369,1.864,E10
2184,Montignac,45.05862,1.15415,1.846,E10
2185,Châtillon-sur-Chalaronne,46.117,4.95,1.767,Gazole
2186,Porto-Vecchio,41.571,9.273,1.95,Gazole
2187,Loudéac,48.19337648347,-2.7574038780979997,1.73,Gazole
2188,Plouarzel,48.432,-4.721,1.749,Gazole
2189,Dordives,48.14871,2.76388,1.951,SP98
2190,EDON,45.489,0.363,1.844,Gazole
2191,VILLEMAGNE-L'ARGENTIèRE,43.596,3.129,1.895,SP98
2192,Sommesous,48.729,4.228,2.049,E10
2193,Montfort-sur-Meu,48.138,-1.933,1.755,Gazole
2194,Montfort-sur-Meu,48.138,-1.933,1.099,E85
2195,ANIANE,43.687,3.585,1.809,Gazole
2196,POUANCé,47.7424261456,-1.16756267817,1.864,Gazole
2197,TOULOUSE,43.569,1.456,1.951,Gazole
2198,La Roche-Chalais,45.146,0.005,1.765,Gazole
2199,Saint-Maur,46.818,1.669,0.999,GPLc
2200,Valenton,48.74926,2.45465,1.947,SP95
2201,Valenton,48.74926,2.45465,1.989,SP98
2202,La Bazoge,48.091,0.157,1.77,Gazole
2203,GUIDEL,47.787,-3.49,1.779,Gazole
2204,Marseille,43.293,5.456,1.129,E85
2205,Déols,46.85027308094801,1.7074160371734999,1.159,E85
2206,FLORANGE,49.31759,6.11436,1.999,SP98
2207,Saint-Méen-le-Grand,48.189,-2.198,1.825,E10
2208,LANDEVANT,47.761,-3.124,1.815,E10
2209,BIHOREL,49.46334,1.12358,1.919,SP98
2210,Plumelec,47.839,-2.638,1.874,Gazole
2211,Saint-Vallier,45.195,4.814,1.883,Gazole
2212,Pleurtuit,48.61,-2.067,1.895,SP98
2213,COSNE-COURS-SUR-LOIRE,47.386,2.921,1.789,Gazole
2214,SAINT-FOLQUIN,50.945,2.119,1.759,Gazole
2215,Albertville,45.661,6.384,2.046,SP98
2216,VITROLLES,43.433,5.259,1.74,Gazole
2217,LE RHEU,48.093,-1.782,1.149,E85
